var sev = {
   "type": "FeatureCollection",
   "features": [
  {
    "type": "Feature",
    "geometry": {
       "type": "Point",
       "coordinates":  [ -5.988933,37.412983 ]
    },
    "properties": {
    "X":-5.988933251932231,
    "Y":37.412983041853934,
    "FID":1,
    "id_estacio":1,
    "Direccion":"Glorieta Olimpica",
    "Aproximaci":"Concejal Alberto Jiménez-Becerril",
    "CreationDate":"2014-10-04T21:21:32.379Z",
    "Creator":"Ayto.Sevilla",
    "EditDate":"2014-10-04T21:21:32.379Z",
    "Editor":"Ayto.Sevilla"
    }
  },
  {
    "type": "Feature",
    "geometry": {
       "type": "Point",
       "coordinates":  [ -5.965183,37.381664 ]
    },
    "properties": {
    "X":-5.965182694135409,
    "Y":37.381664061223965,
    "FID":2,
    "id_estacio":2,
    "Direccion":"Gran Plaza",
    "Aproximaci":"Calle Marquez de Pickman",
    "CreationDate":"2014-10-04T21:21:32.379Z",
    "Creator":"Ayto.Sevilla",
    "EditDate":"2014-10-04T21:21:32.379Z",
    "Editor":"Ayto.Sevilla"
    }
  },
  {
    "type": "Feature",
    "geometry": {
       "type": "Point",
       "coordinates":  [ -5.998514,37.40564 ]
    },
    "properties": {
    "X":-5.998513784437367,
    "Y":37.40563993879666,
    "FID":3,
    "id_estacio":3,
    "Direccion":"Puerta de la Barqueta",
    "Aproximaci":"Puente de la Barqueta",
    "CreationDate":"2014-10-04T21:21:32.379Z",
    "Creator":"Ayto.Sevilla",
    "EditDate":"2014-10-04T21:21:32.379Z",
    "Editor":"Ayto.Sevilla"
    }
  },
  {
    "type": "Feature",
    "geometry": {
       "type": "Point",
       "coordinates":  [ -6.005659,37.410126 ]
    },
    "properties": {
    "X":-6.00565898420724,
    "Y":37.41012608875761,
    "FID":4,
    "id_estacio":4,
    "Direccion":"Calle Leonardo Da Vinci",
    "Aproximaci":"Calle Thomas Alba Edison",
    "CreationDate":"2014-10-04T21:21:32.379Z",
    "Creator":"Ayto.Sevilla",
    "EditDate":"2014-10-04T21:21:32.379Z",
    "Editor":"Ayto.Sevilla"
    }
  },
  {
    "type": "Feature",
    "geometry": {
       "type": "Point",
       "coordinates":  [ -5.981396,37.364746 ]
    },
    "properties": {
    "X":-5.981396386698469,
    "Y":37.36474629901322,
    "FID":5,
    "id_estacio":131,
    "Direccion":"Calle Tabladilla",
    "Aproximaci":"Calle Cardenal Ilundaín",
    "CreationDate":"2014-10-04T21:21:32.379Z",
    "Creator":"Ayto.Sevilla",
    "EditDate":"2014-10-04T21:21:32.379Z",
    "Editor":"Ayto.Sevilla"
    }
  },
  {
    "type": "Feature",
    "geometry": {
       "type": "Point",
       "coordinates":  [ -5.984777,37.36367 ]
    },
    "properties": {
    "X":-5.984776747112617,
    "Y":37.36367033794603,
    "FID":6,
    "id_estacio":132,
    "Direccion":"Calle Paez de Ribera",
    "Aproximaci":"Paseo de la Palmera",
    "CreationDate":"2014-10-04T21:21:32.379Z",
    "Creator":"Ayto.Sevilla",
    "EditDate":"2014-10-04T21:21:32.379Z",
    "Editor":"Ayto.Sevilla"
    }
  },
  {
    "type": "Feature",
    "geometry": {
       "type": "Point",
       "coordinates":  [ -6.001936,37.411022 ]
    },
    "properties": {
    "X":-6.001936365669861,
    "Y":37.41102228757182,
    "FID":7,
    "id_estacio":5,
    "Direccion":"Camino de los Descubrimientos",
    "Aproximaci":"Calle Thomás Alba Edison",
    "CreationDate":"2014-10-04T21:21:32.379Z",
    "Creator":"Ayto.Sevilla",
    "EditDate":"2014-10-04T21:21:32.379Z",
    "Editor":"Ayto.Sevilla"
    }
  },
  {
    "type": "Feature",
    "geometry": {
       "type": "Point",
       "coordinates":  [ -6.004259,37.374001 ]
    },
    "properties": {
    "X":-6.004259408994608,
    "Y":37.374000926161294,
    "FID":8,
    "id_estacio":133,
    "Direccion":"Avenida Santa Fe",
    "Aproximaci":"Calle Virgen de la Oliva",
    "CreationDate":"2014-10-04T21:21:32.379Z",
    "Creator":"Ayto.Sevilla",
    "EditDate":"2014-10-04T21:21:32.379Z",
    "Editor":"Ayto.Sevilla"
    }
  },
  {
    "type": "Feature",
    "geometry": {
       "type": "Point",
       "coordinates":  [ -6.002848,37.406677 ]
    },
    "properties": {
    "X":-6.002848155683243,
    "Y":37.40667676493793,
    "FID":9,
    "id_estacio":6,
    "Direccion":"Camino de los Descubrimientos",
    "Aproximaci":"Calle Isaac Newton",
    "CreationDate":"2014-10-04T21:21:32.379Z",
    "Creator":"Ayto.Sevilla",
    "EditDate":"2014-10-04T21:21:32.379Z",
    "Editor":"Ayto.Sevilla"
    }
  },
  {
    "type": "Feature",
    "geometry": {
       "type": "Point",
       "coordinates":  [ -5.998519,37.374783 ]
    },
    "properties": {
    "X":-5.998519174329084,
    "Y":37.37478333708746,
    "FID":10,
    "id_estacio":134,
    "Direccion":"Calle Virgen de Luján",
    "Aproximaci":"Calle Asunción",
    "CreationDate":"2014-10-04T21:21:32.379Z",
    "Creator":"Ayto.Sevilla",
    "EditDate":"2014-10-04T21:21:32.379Z",
    "Editor":"Ayto.Sevilla"
    }
  },
  {
    "type": "Feature",
    "geometry": {
       "type": "Point",
       "coordinates":  [ -6.007413,37.407516 ]
    },
    "properties": {
    "X":-6.007413393957131,
    "Y":37.40751591998063,
    "FID":11,
    "id_estacio":7,
    "Direccion":"Calle Américo Vespucio",
    "Aproximaci":"Calle de Jacques Cousteau",
    "CreationDate":"2014-10-04T21:21:32.379Z",
    "Creator":"Ayto.Sevilla",
    "EditDate":"2014-10-04T21:21:32.379Z",
    "Editor":"Ayto.Sevilla"
    }
  },
  {
    "type": "Feature",
    "geometry": {
       "type": "Point",
       "coordinates":  [ -5.994916,37.374657 ]
    },
    "properties": {
    "X":-5.994916031724467,
    "Y":37.374656981131004,
    "FID":12,
    "id_estacio":135,
    "Direccion":"Calle Virgen de Luján",
    "Aproximaci":"Glorieta las Cigarreras",
    "CreationDate":"2014-10-04T21:21:32.379Z",
    "Creator":"Ayto.Sevilla",
    "EditDate":"2014-10-04T21:21:32.379Z",
    "Editor":"Ayto.Sevilla"
    }
  },
  {
    "type": "Feature",
    "geometry": {
       "type": "Point",
       "coordinates":  [ -5.99763,37.373226 ]
    },
    "properties": {
    "X":-5.997629842197806,
    "Y":37.37322564597106,
    "FID":13,
    "id_estacio":136,
    "Direccion":"Calle Asunción",
    "Aproximaci":"Calle Virgen de la Antigua",
    "CreationDate":"2014-10-04T21:21:32.379Z",
    "Creator":"Ayto.Sevilla",
    "EditDate":"2014-10-04T21:21:32.379Z",
    "Editor":"Ayto.Sevilla"
    }
  },
  {
    "type": "Feature",
    "geometry": {
       "type": "Point",
       "coordinates":  [ -6.009403,37.401035 ]
    },
    "properties": {
    "X":-6.009403162311457,
    "Y":37.401035058562336,
    "FID":14,
    "id_estacio":8,
    "Direccion":"Calle Leonardo Da Vinci",
    "Aproximaci":"Calle Gregor Mendel",
    "CreationDate":"2014-10-04T21:21:32.379Z",
    "Creator":"Ayto.Sevilla",
    "EditDate":"2014-10-04T21:21:32.379Z",
    "Editor":"Ayto.Sevilla"
    }
  },
  {
    "type": "Feature",
    "geometry": {
       "type": "Point",
       "coordinates":  [ -5.985478,37.373745 ]
    },
    "properties": {
    "X":-5.985478331349495,
    "Y":37.37374535586052,
    "FID":15,
    "id_estacio":137,
    "Direccion":"Avenida de la Borbolla",
    "Aproximaci":"Calle Porvenir",
    "CreationDate":"2014-10-04T21:21:32.379Z",
    "Creator":"Ayto.Sevilla",
    "EditDate":"2014-10-04T21:21:32.379Z",
    "Editor":"Ayto.Sevilla"
    }
  },
  {
    "type": "Feature",
    "geometry": {
       "type": "Point",
       "coordinates":  [ -5.978978,37.375852 ]
    },
    "properties": {
    "X":-5.978978121953626,
    "Y":37.37585271400338,
    "FID":16,
    "id_estacio":138,
    "Direccion":"Calle Ramón Carande",
    "Aproximaci":"Calle San Salvador",
    "CreationDate":"2014-10-04T21:21:32.379Z",
    "Creator":"Ayto.Sevilla",
    "EditDate":"2014-10-04T21:21:32.379Z",
    "Editor":"Ayto.Sevilla"
    }
  },
  {
    "type": "Feature",
    "geometry": {
       "type": "Point",
       "coordinates":  [ -6.004066,37.402927 ]
    },
    "properties": {
    "X":-6.004066271208522,
    "Y":37.40292685439503,
    "FID":17,
    "id_estacio":9,
    "Direccion":"Camino de los Descubrimientos",
    "Aproximaci":"Calle Albert Einstein",
    "CreationDate":"2014-10-04T21:21:32.379Z",
    "Creator":"Ayto.Sevilla",
    "EditDate":"2014-10-04T21:21:32.379Z",
    "Editor":"Ayto.Sevilla"
    }
  },
  {
    "type": "Feature",
    "geometry": {
       "type": "Point",
       "coordinates":  [ -5.975825,37.37516 ]
    },
    "properties": {
    "X":-5.975825035306366,
    "Y":37.37516026206606,
    "FID":18,
    "id_estacio":139,
    "Direccion":"Avenida Diego Martinez Barrio",
    "Aproximaci":"Avenida General García de la Herranz",
    "CreationDate":"2014-10-04T21:21:32.379Z",
    "Creator":"Ayto.Sevilla",
    "EditDate":"2014-10-04T21:21:32.379Z",
    "Editor":"Ayto.Sevilla"
    }
  },
  {
    "type": "Feature",
    "geometry": {
       "type": "Point",
       "coordinates":  [ -5.990961,37.409096 ]
    },
    "properties": {
    "X":-5.990960749528482,
    "Y":37.409095732285955,
    "FID":19,
    "id_estacio":10,
    "Direccion":"Calle José Diaz",
    "Aproximaci":"Avenida Concejal Alberto Jiménez-Becerril",
    "CreationDate":"2014-10-04T21:21:32.379Z",
    "Creator":"Ayto.Sevilla",
    "EditDate":"2014-10-04T21:21:32.379Z",
    "Editor":"Ayto.Sevilla"
    }
  },
  {
    "type": "Feature",
    "geometry": {
       "type": "Point",
       "coordinates":  [ -5.977351,37.372375 ]
    },
    "properties": {
    "X":-5.977351272974071,
    "Y":37.37237468464117,
    "FID":20,
    "id_estacio":140,
    "Direccion":"Calle Felipe II",
    "Aproximaci":"Avenida Diego Martínez Barrio",
    "CreationDate":"2014-10-04T21:21:32.379Z",
    "Creator":"Ayto.Sevilla",
    "EditDate":"2014-10-04T21:21:32.379Z",
    "Editor":"Ayto.Sevilla"
    }
  },
  {
    "type": "Feature",
    "geometry": {
       "type": "Point",
       "coordinates":  [ -5.993214,37.405846 ]
    },
    "properties": {
    "X":-5.993213724261061,
    "Y":37.40584616344617,
    "FID":21,
    "id_estacio":11,
    "Direccion":"Calle Avicena",
    "Aproximaci":"Calle Avenzoar",
    "CreationDate":"2014-10-04T21:21:32.379Z",
    "Creator":"Ayto.Sevilla",
    "EditDate":"2014-10-04T21:21:32.379Z",
    "Editor":"Ayto.Sevilla"
    }
  },
  {
    "type": "Feature",
    "geometry": {
       "type": "Point",
       "coordinates":  [ -5.9819,37.371716 ]
    },
    "properties": {
    "X":-5.981900341572873,
    "Y":37.37171575409409,
    "FID":22,
    "id_estacio":141,
    "Direccion":"Calle Felipe II",
    "Aproximaci":"Calle Ramón Carande",
    "CreationDate":"2014-10-04T21:21:32.379Z",
    "Creator":"Ayto.Sevilla",
    "EditDate":"2014-10-04T21:21:32.379Z",
    "Editor":"Ayto.Sevilla"
    }
  },
  {
    "type": "Feature",
    "geometry": {
       "type": "Point",
       "coordinates":  [ -5.99493,37.403854 ]
    },
    "properties": {
    "X":-5.994930404769027,
    "Y":37.403853824053996,
    "FID":23,
    "id_estacio":12,
    "Direccion":"Plaza Duquesa de Alba",
    "Aproximaci":"Barqueta",
    "CreationDate":"2014-10-04T21:21:32.379Z",
    "Creator":"Ayto.Sevilla",
    "EditDate":"2014-10-04T21:21:32.379Z",
    "Editor":"Ayto.Sevilla"
    }
  },
  {
    "type": "Feature",
    "geometry": {
       "type": "Point",
       "coordinates":  [ -5.997197,37.371639 ]
    },
    "properties": {
    "X":-5.997196854230833,
    "Y":37.37163865241669,
    "FID":24,
    "id_estacio":142,
    "Direccion":"Calle Ramon de Carranza",
    "Aproximaci":"Calle Asunción",
    "CreationDate":"2014-10-04T21:21:32.379Z",
    "Creator":"Ayto.Sevilla",
    "EditDate":"2014-10-04T21:21:32.379Z",
    "Editor":"Ayto.Sevilla"
    }
  },
  {
    "type": "Feature",
    "geometry": {
       "type": "Point",
       "coordinates":  [ -5.991856,37.403156 ]
    },
    "properties": {
    "X":-5.991856369866744,
    "Y":37.40315592186714,
    "FID":25,
    "id_estacio":13,
    "Direccion":"Calle Feria",
    "Aproximaci":"Calle Resolana",
    "CreationDate":"2014-10-04T21:21:32.379Z",
    "Creator":"Ayto.Sevilla",
    "EditDate":"2014-10-04T21:21:32.379Z",
    "Editor":"Ayto.Sevilla"
    }
  },
  {
    "type": "Feature",
    "geometry": {
       "type": "Point",
       "coordinates":  [ -6.003318,37.371628 ]
    },
    "properties": {
    "X":-6.003317974576844,
    "Y":37.371627943844125,
    "FID":26,
    "id_estacio":143,
    "Direccion":"Calle Ramon de Carranza",
    "Aproximaci":"Calle Virgen de la Oliva",
    "CreationDate":"2014-10-04T21:21:32.379Z",
    "Creator":"Ayto.Sevilla",
    "EditDate":"2014-10-04T21:21:32.379Z",
    "Editor":"Ayto.Sevilla"
    }
  },
  {
    "type": "Feature",
    "geometry": {
       "type": "Point",
       "coordinates":  [ -5.988002,37.369106 ]
    },
    "properties": {
    "X":-5.988001698982607,
    "Y":37.36910567547082,
    "FID":27,
    "id_estacio":144,
    "Direccion":"Avenida de la Palmera",
    "Aproximaci":"Clinica de Fátima",
    "CreationDate":"2014-10-04T21:21:32.379Z",
    "Creator":"Ayto.Sevilla",
    "EditDate":"2014-10-04T21:21:32.379Z",
    "Editor":"Ayto.Sevilla"
    }
  },
  {
    "type": "Feature",
    "geometry": {
       "type": "Point",
       "coordinates":  [ -5.989079,37.406918 ]
    },
    "properties": {
    "X":-5.989078779008253,
    "Y":37.4069179516185,
    "FID":28,
    "id_estacio":14,
    "Direccion":"Avenida Sánchez Pizjuan",
    "Aproximaci":"Facultad de medicina",
    "CreationDate":"2014-10-04T21:21:32.379Z",
    "Creator":"Ayto.Sevilla",
    "EditDate":"2014-10-04T21:21:32.379Z",
    "Editor":"Ayto.Sevilla"
    }
  },
  {
    "type": "Feature",
    "geometry": {
       "type": "Point",
       "coordinates":  [ -5.986358,37.360226 ]
    },
    "properties": {
    "X":-5.986357782012667,
    "Y":37.36022601643254,
    "FID":29,
    "id_estacio":145,
    "Direccion":"Avenida Reina Mercedes",
    "Aproximaci":"Calle Profesor García González",
    "CreationDate":"2014-10-04T21:21:32.379Z",
    "Creator":"Ayto.Sevilla",
    "EditDate":"2014-10-04T21:21:32.379Z",
    "Editor":"Ayto.Sevilla"
    }
  },
  {
    "type": "Feature",
    "geometry": {
       "type": "Point",
       "coordinates":  [ -5.985341,37.407227 ]
    },
    "properties": {
    "X":-5.98534088911105,
    "Y":37.40722692632038,
    "FID":30,
    "id_estacio":15,
    "Direccion":"Calle Dr Marañon",
    "Aproximaci":"Calle San Juan de Ribera",
    "CreationDate":"2014-10-04T21:21:32.379Z",
    "Creator":"Ayto.Sevilla",
    "EditDate":"2014-10-04T21:21:32.379Z",
    "Editor":"Ayto.Sevilla"
    }
  },
  {
    "type": "Feature",
    "geometry": {
       "type": "Point",
       "coordinates":  [ -5.986358,37.360119 ]
    },
    "properties": {
    "X":-5.986357782012667,
    "Y":37.36011891434875,
    "FID":31,
    "id_estacio":146,
    "Direccion":"Avenida Reina Mercedes",
    "Aproximaci":"Calle Profesor García González",
    "CreationDate":"2014-10-04T21:21:32.379Z",
    "Creator":"Ayto.Sevilla",
    "EditDate":"2014-10-04T21:21:32.379Z",
    "Editor":"Ayto.Sevilla"
    }
  },
  {
    "type": "Feature",
    "geometry": {
       "type": "Point",
       "coordinates":  [ -5.982795,37.407028 ]
    },
    "properties": {
    "X":-5.982795063595836,
    "Y":37.407027841150395,
    "FID":32,
    "id_estacio":16,
    "Direccion":"Calle Manuel Villalobos",
    "Aproximaci":"Calle Sor Francisca Dorotea",
    "CreationDate":"2014-10-04T21:21:32.379Z",
    "Creator":"Ayto.Sevilla",
    "EditDate":"2014-10-04T21:21:32.379Z",
    "Editor":"Ayto.Sevilla"
    }
  },
  {
    "type": "Feature",
    "geometry": {
       "type": "Point",
       "coordinates":  [ -5.975233,37.400829 ]
    },
    "properties": {
    "X":-5.975233045534112,
    "Y":37.40082882067124,
    "FID":33,
    "id_estacio":147,
    "Direccion":"Carretera de Carmona",
    "Aproximaci":"Calle Maestro Solano",
    "CreationDate":"2014-10-04T21:21:32.379Z",
    "Creator":"Ayto.Sevilla",
    "EditDate":"2014-10-04T21:21:32.379Z",
    "Editor":"Ayto.Sevilla"
    }
  },
  {
    "type": "Feature",
    "geometry": {
       "type": "Point",
       "coordinates":  [ -5.978907,37.407173 ]
    },
    "properties": {
    "X":-5.97890715504616,
    "Y":37.40717269528706,
    "FID":34,
    "id_estacio":17,
    "Direccion":"Calle de Madreselva",
    "Aproximaci":"Ronda de Pio XII",
    "CreationDate":"2014-10-04T21:21:32.379Z",
    "Creator":"Ayto.Sevilla",
    "EditDate":"2014-10-04T21:21:32.379Z",
    "Editor":"Ayto.Sevilla"
    }
  },
  {
    "type": "Feature",
    "geometry": {
       "type": "Point",
       "coordinates":  [ -5.96814,37.382 ]
    },
    "properties": {
    "X":-5.968139948050724,
    "Y":37.38200026468263,
    "FID":35,
    "id_estacio":18,
    "Direccion":"Avenida Eduardo Dato",
    "Aproximaci":"Calle Marqués del Nervión",
    "CreationDate":"2014-10-04T21:21:32.379Z",
    "Creator":"Ayto.Sevilla",
    "EditDate":"2014-10-04T21:21:32.379Z",
    "Editor":"Ayto.Sevilla"
    }
  },
  {
    "type": "Feature",
    "geometry": {
       "type": "Point",
       "coordinates":  [ -5.97321,37.398758 ]
    },
    "properties": {
    "X":-5.973210039514282,
    "Y":37.398757846783575,
    "FID":36,
    "id_estacio":148,
    "Direccion":"Calle Tharsis",
    "Aproximaci":"Calle Aorno",
    "CreationDate":"2014-10-04T21:21:32.379Z",
    "Creator":"Ayto.Sevilla",
    "EditDate":"2014-10-04T21:21:32.379Z",
    "Editor":"Ayto.Sevilla"
    }
  },
  {
    "type": "Feature",
    "geometry": {
       "type": "Point",
       "coordinates":  [ -5.988962,37.40324 ]
    },
    "properties": {
    "X":-5.988961998021317,
    "Y":37.40324012717928,
    "FID":37,
    "id_estacio":19,
    "Direccion":"Parlamento",
    "Aproximaci":"Calle Don Fadrique",
    "CreationDate":"2014-10-04T21:21:32.379Z",
    "Creator":"Ayto.Sevilla",
    "EditDate":"2014-10-04T21:21:32.379Z",
    "Editor":"Ayto.Sevilla"
    }
  },
  {
    "type": "Feature",
    "geometry": {
       "type": "Point",
       "coordinates":  [ -5.975711,37.397854 ]
    },
    "properties": {
    "X":-5.97571094926529,
    "Y":37.39785365105625,
    "FID":38,
    "id_estacio":149,
    "Direccion":"Calle Arroyo",
    "Aproximaci":"Calle Tena",
    "CreationDate":"2014-10-04T21:21:32.379Z",
    "Creator":"Ayto.Sevilla",
    "EditDate":"2014-10-04T21:21:32.379Z",
    "Editor":"Ayto.Sevilla"
    }
  },
  {
    "type": "Feature",
    "geometry": {
       "type": "Point",
       "coordinates":  [ -5.978621,37.396782 ]
    },
    "properties": {
    "X":-5.97862059247054,
    "Y":37.3967817332289,
    "FID":39,
    "id_estacio":150,
    "Direccion":"Calle San Juan Bosco",
    "Aproximaci":"Calle Arroyo",
    "CreationDate":"2014-10-04T21:21:32.379Z",
    "Creator":"Ayto.Sevilla",
    "EditDate":"2014-10-04T21:21:32.379Z",
    "Editor":"Ayto.Sevilla"
    }
  },
  {
    "type": "Feature",
    "geometry": {
       "type": "Point",
       "coordinates":  [ -5.986699,37.404736 ]
    },
    "properties": {
    "X":-5.986699141820633,
    "Y":37.404735826108066,
    "FID":40,
    "id_estacio":20,
    "Direccion":"Calle San Juan de Ribera",
    "Aproximaci":"Calle Fray Isidoro de Sevilla",
    "CreationDate":"2014-10-04T21:21:32.379Z",
    "Creator":"Ayto.Sevilla",
    "EditDate":"2014-10-04T21:21:32.379Z",
    "Editor":"Ayto.Sevilla"
    }
  },
  {
    "type": "Feature",
    "geometry": {
       "type": "Point",
       "coordinates":  [ -5.979927,37.394619 ]
    },
    "properties": {
    "X":-5.979926742893635,
    "Y":37.3946192957473,
    "FID":41,
    "id_estacio":151,
    "Direccion":"Calle Urquiza",
    "Aproximaci":"Esquina calle Venecia",
    "CreationDate":"2014-10-04T21:21:32.379Z",
    "Creator":"Ayto.Sevilla",
    "EditDate":"2014-10-04T21:21:32.379Z",
    "Editor":"Ayto.Sevilla"
    }
  },
  {
    "type": "Feature",
    "geometry": {
       "type": "Point",
       "coordinates":  [ -5.974481,37.395821 ]
    },
    "properties": {
    "X":-5.97448115564131,
    "Y":37.39582113338918,
    "FID":42,
    "id_estacio":152,
    "Direccion":"Calle Samaniego",
    "Aproximaci":"Calle Esperanza de la Trinidad",
    "CreationDate":"2014-10-04T21:21:32.379Z",
    "Creator":"Ayto.Sevilla",
    "EditDate":"2014-10-04T21:21:32.379Z",
    "Editor":"Ayto.Sevilla"
    }
  },
  {
    "type": "Feature",
    "geometry": {
       "type": "Point",
       "coordinates":  [ -5.981498,37.405506 ]
    },
    "properties": {
    "X":-5.981497896325581,
    "Y":37.4055057854327,
    "FID":43,
    "id_estacio":21,
    "Direccion":"Calle Manuel Villalobos",
    "Aproximaci":"Calle Madre San Marcelo",
    "CreationDate":"2014-10-04T21:21:32.379Z",
    "Creator":"Ayto.Sevilla",
    "EditDate":"2014-10-04T21:21:32.379Z",
    "Editor":"Ayto.Sevilla"
    }
  },
  {
    "type": "Feature",
    "geometry": {
       "type": "Point",
       "coordinates":  [ -5.974867,37.405144 ]
    },
    "properties": {
    "X":-5.974867431213482,
    "Y":37.40514399830178,
    "FID":44,
    "id_estacio":22,
    "Direccion":"Avenida de Llanes",
    "Aproximaci":"Avenida de Miraflores",
    "CreationDate":"2014-10-04T21:21:32.379Z",
    "Creator":"Ayto.Sevilla",
    "EditDate":"2014-10-04T21:21:32.379Z",
    "Editor":"Ayto.Sevilla"
    }
  },
  {
    "type": "Feature",
    "geometry": {
       "type": "Point",
       "coordinates":  [ -5.986259,37.362988 ]
    },
    "properties": {
    "X":-5.986258967331414,
    "Y":37.362987769377156,
    "FID":45,
    "id_estacio":153,
    "Direccion":"Avenida Reina Mercedes",
    "Aproximaci":"Escuela de Arquitectura",
    "CreationDate":"2014-10-04T21:21:32.379Z",
    "Creator":"Ayto.Sevilla",
    "EditDate":"2014-10-04T21:21:32.379Z",
    "Editor":"Ayto.Sevilla"
    }
  },
  {
    "type": "Feature",
    "geometry": {
       "type": "Point",
       "coordinates":  [ -5.987928,37.403358 ]
    },
    "properties": {
    "X":-5.987928037129315,
    "Y":37.403357871736766,
    "FID":46,
    "id_estacio":23,
    "Direccion":"Parlamento",
    "Aproximaci":"Calle San Juan de Ribera",
    "CreationDate":"2014-10-04T21:21:32.379Z",
    "Creator":"Ayto.Sevilla",
    "EditDate":"2014-10-04T21:21:32.379Z",
    "Editor":"Ayto.Sevilla"
    }
  },
  {
    "type": "Feature",
    "geometry": {
       "type": "Point",
       "coordinates":  [ -5.968394,37.394875 ]
    },
    "properties": {
    "X":-5.968394171276136,
    "Y":37.3948747949112,
    "FID":47,
    "id_estacio":154,
    "Direccion":"Avenida Kansas City",
    "Aproximaci":"Calle Naranjito de Triana",
    "CreationDate":"2014-10-04T21:21:32.379Z",
    "Creator":"Ayto.Sevilla",
    "EditDate":"2014-10-04T21:21:32.379Z",
    "Editor":"Ayto.Sevilla"
    }
  },
  {
    "type": "Feature",
    "geometry": {
       "type": "Point",
       "coordinates":  [ -5.984668,37.404034 ]
    },
    "properties": {
    "X":-5.984668050963226,
    "Y":37.40403365055813,
    "FID":48,
    "id_estacio":24,
    "Direccion":"Calle León XIII",
    "Aproximaci":"Calle Fray Isidoro de Sevilla",
    "CreationDate":"2014-10-04T21:21:32.379Z",
    "Creator":"Ayto.Sevilla",
    "EditDate":"2014-10-04T21:21:32.379Z",
    "Editor":"Ayto.Sevilla"
    }
  },
  {
    "type": "Feature",
    "geometry": {
       "type": "Point",
       "coordinates":  [ -5.970766,37.392906 ]
    },
    "properties": {
    "X":-5.970765723626211,
    "Y":37.39290571599825,
    "FID":49,
    "id_estacio":155,
    "Direccion":"Avenida Kansas City",
    "Aproximaci":"Avenida El Greco",
    "CreationDate":"2014-10-04T21:21:32.379Z",
    "Creator":"Ayto.Sevilla",
    "EditDate":"2014-10-04T21:21:32.379Z",
    "Editor":"Ayto.Sevilla"
    }
  },
  {
    "type": "Feature",
    "geometry": {
       "type": "Point",
       "coordinates":  [ -5.981085,37.403145 ]
    },
    "properties": {
    "X":-5.981084671294886,
    "Y":37.40314521779525,
    "FID":50,
    "id_estacio":25,
    "Direccion":"Avenida de la Cruz Roja",
    "Aproximaci":"Calle Albaida",
    "CreationDate":"2014-10-04T21:21:32.379Z",
    "Creator":"Ayto.Sevilla",
    "EditDate":"2014-10-04T21:21:32.379Z",
    "Editor":"Ayto.Sevilla"
    }
  },
  {
    "type": "Feature",
    "geometry": {
       "type": "Point",
       "coordinates":  [ -5.972649,37.391483 ]
    },
    "properties": {
    "X":-5.972648592461707,
    "Y":37.39148329372427,
    "FID":51,
    "id_estacio":156,
    "Direccion":"Avenida Kansas City",
    "Aproximaci":"Baltasar Gracián",
    "CreationDate":"2014-10-04T21:21:32.379Z",
    "Creator":"Ayto.Sevilla",
    "EditDate":"2014-10-04T21:21:32.379Z",
    "Editor":"Ayto.Sevilla"
    }
  },
  {
    "type": "Feature",
    "geometry": {
       "type": "Point",
       "coordinates":  [ -5.977635,37.402542 ]
    },
    "properties": {
    "X":-5.977635140603867,
    "Y":37.402542219276434,
    "FID":52,
    "id_estacio":26,
    "Direccion":"Avenida de Miraflores",
    "Aproximaci":"Calle Manuel Ródenas",
    "CreationDate":"2014-10-04T21:21:32.379Z",
    "Creator":"Ayto.Sevilla",
    "EditDate":"2014-10-04T21:21:32.379Z",
    "Editor":"Ayto.Sevilla"
    }
  },
  {
    "type": "Feature",
    "geometry": {
       "type": "Point",
       "coordinates":  [ -5.978165,37.369778 ]
    },
    "properties": {
    "X":-5.978165146621497,
    "Y":37.36977819347244,
    "FID":53,
    "id_estacio":157,
    "Direccion":"Avenida Cardenal Bueno Monreal",
    "Aproximaci":"Avenida Ramón Carande",
    "CreationDate":"2014-10-04T21:21:32.379Z",
    "Creator":"Ayto.Sevilla",
    "EditDate":"2014-10-04T21:21:32.379Z",
    "Editor":"Ayto.Sevilla"
    }
  },
  {
    "type": "Feature",
    "geometry": {
       "type": "Point",
       "coordinates":  [ -5.972099,37.403881 ]
    },
    "properties": {
    "X":-5.972098823507832,
    "Y":37.40388094077673,
    "FID":54,
    "id_estacio":27,
    "Direccion":"Avenida de Llanes",
    "Aproximaci":"Calle Escultor Francisco Buiza",
    "CreationDate":"2014-10-04T21:21:32.379Z",
    "Creator":"Ayto.Sevilla",
    "EditDate":"2014-10-04T21:21:32.379Z",
    "Editor":"Ayto.Sevilla"
    }
  },
  {
    "type": "Feature",
    "geometry": {
       "type": "Point",
       "coordinates":  [ -5.976723,37.360332 ]
    },
    "properties": {
    "X":-5.976723350590486,
    "Y":37.36033169033877,
    "FID":55,
    "id_estacio":28,
    "Direccion":"Calle Rafael Salgado",
    "Aproximaci":"Calle Castillo Alcala de Guadaira",
    "CreationDate":"2014-10-04T21:21:32.379Z",
    "Creator":"Ayto.Sevilla",
    "EditDate":"2014-10-04T21:21:32.379Z",
    "Editor":"Ayto.Sevilla"
    }
  },
  {
    "type": "Feature",
    "geometry": {
       "type": "Point",
       "coordinates":  [ -5.981573,37.368866 ]
    },
    "properties": {
    "X":-5.981573354809433,
    "Y":37.36886579497975,
    "FID":56,
    "id_estacio":158,
    "Direccion":"Avenida Cardenal Bueno Monreal",
    "Aproximaci":"Calle Bogota",
    "CreationDate":"2014-10-04T21:21:32.379Z",
    "Creator":"Ayto.Sevilla",
    "EditDate":"2014-10-04T21:21:32.379Z",
    "Editor":"Ayto.Sevilla"
    }
  },
  {
    "type": "Feature",
    "geometry": {
       "type": "Point",
       "coordinates":  [ -5.970082,37.402534 ]
    },
    "properties": {
    "X":-5.970082105694983,
    "Y":37.40253365594889,
    "FID":57,
    "id_estacio":29,
    "Direccion":"Carretera de Carmona",
    "Aproximaci":"Avenida de Llanes",
    "CreationDate":"2014-10-04T21:21:32.379Z",
    "Creator":"Ayto.Sevilla",
    "EditDate":"2014-10-04T21:21:32.379Z",
    "Editor":"Ayto.Sevilla"
    }
  },
  {
    "type": "Feature",
    "geometry": {
       "type": "Point",
       "coordinates":  [ -5.984859,37.368046 ]
    },
    "properties": {
    "X":-5.98485939211875,
    "Y":37.36804619751489,
    "FID":58,
    "id_estacio":159,
    "Direccion":"Avenida Cardenal Bueno Monreal",
    "Aproximaci":"Avenida Manuel Siurot",
    "CreationDate":"2014-10-04T21:21:32.379Z",
    "Creator":"Ayto.Sevilla",
    "EditDate":"2014-10-04T21:21:32.379Z",
    "Editor":"Ayto.Sevilla"
    }
  },
  {
    "type": "Feature",
    "geometry": {
       "type": "Point",
       "coordinates":  [ -5.970812,37.382519 ]
    },
    "properties": {
    "X":-5.970812436020979,
    "Y":37.38251919997108,
    "FID":59,
    "id_estacio":30,
    "Direccion":"Avenida Eduardo Dato",
    "Aproximaci":"Detrás Estadio Sánchez Pizjuan",
    "CreationDate":"2014-10-04T21:21:32.379Z",
    "Creator":"Ayto.Sevilla",
    "EditDate":"2014-10-04T21:21:32.379Z",
    "Editor":"Ayto.Sevilla"
    }
  },
  {
    "type": "Feature",
    "geometry": {
       "type": "Point",
       "coordinates":  [ -6.001927,37.387516 ]
    },
    "properties": {
    "X":-6.001927382517021,
    "Y":37.38751635584983,
    "FID":60,
    "id_estacio":160,
    "Direccion":"Calle Arjona",
    "Aproximaci":"Puente de Triana",
    "CreationDate":"2014-10-04T21:21:32.379Z",
    "Creator":"Ayto.Sevilla",
    "EditDate":"2014-10-04T21:21:32.379Z",
    "Editor":"Ayto.Sevilla"
    }
  },
  {
    "type": "Feature",
    "geometry": {
       "type": "Point",
       "coordinates":  [ -5.979831,37.400414 ]
    },
    "properties": {
    "X":-5.979830623158241,
    "Y":37.40041420229369,
    "FID":61,
    "id_estacio":31,
    "Direccion":"Avenida de Miraflores",
    "Aproximaci":"Calle Albaida",
    "CreationDate":"2014-10-04T21:21:32.379Z",
    "Creator":"Ayto.Sevilla",
    "EditDate":"2014-10-04T21:21:32.379Z",
    "Editor":"Ayto.Sevilla"
    }
  },
  {
    "type": "Feature",
    "geometry": {
       "type": "Point",
       "coordinates":  [ -5.969145,37.399986 ]
    },
    "properties": {
    "X":-5.96914516285364,
    "Y":37.39998602255974,
    "FID":62,
    "id_estacio":161,
    "Direccion":"Avenida Alcalde Manuel del Valle",
    "Aproximaci":"Calle Baltasar de Alcázar",
    "CreationDate":"2014-10-04T21:21:32.379Z",
    "Creator":"Ayto.Sevilla",
    "EditDate":"2014-10-04T21:21:32.379Z",
    "Editor":"Ayto.Sevilla"
    }
  },
  {
    "type": "Feature",
    "geometry": {
       "type": "Point",
       "coordinates":  [ -5.986304,37.402061 ]
    },
    "properties": {
    "X":-5.98630388309562,
    "Y":37.40206124419797,
    "FID":63,
    "id_estacio":32,
    "Direccion":"Calle Muñoz León",
    "Aproximaci":"Calle Morera",
    "CreationDate":"2014-10-04T21:21:32.379Z",
    "Creator":"Ayto.Sevilla",
    "EditDate":"2014-10-04T21:21:32.379Z",
    "Editor":"Ayto.Sevilla"
    }
  },
  {
    "type": "Feature",
    "geometry": {
       "type": "Point",
       "coordinates":  [ -5.968482,37.391525 ]
    },
    "properties": {
    "X":-5.968482206173953,
    "Y":37.39152468923451,
    "FID":64,
    "id_estacio":162,
    "Direccion":"Avenida Solea",
    "Aproximaci":"Calle Media Granaína",
    "CreationDate":"2014-10-04T21:21:32.379Z",
    "Creator":"Ayto.Sevilla",
    "EditDate":"2014-10-04T21:21:32.379Z",
    "Editor":"Ayto.Sevilla"
    }
  },
  {
    "type": "Feature",
    "geometry": {
       "type": "Point",
       "coordinates":  [ -5.983708,37.401531 ]
    },
    "properties": {
    "X":-5.983707751924515,
    "Y":37.401531026253515,
    "FID":65,
    "id_estacio":33,
    "Direccion":"Calle León XIII",
    "Aproximaci":"Calle Antonio Pantión",
    "CreationDate":"2014-10-04T21:21:32.379Z",
    "Creator":"Ayto.Sevilla",
    "EditDate":"2014-10-04T21:21:32.379Z",
    "Editor":"Ayto.Sevilla"
    }
  },
  {
    "type": "Feature",
    "geometry": {
       "type": "Point",
       "coordinates":  [ -5.988557,37.400932 ]
    },
    "properties": {
    "X":-5.988556857828199,
    "Y":37.40093229650069,
    "FID":66,
    "id_estacio":34,
    "Direccion":"Plaza Pumarejo",
    "Aproximaci":"Calle San Luis",
    "CreationDate":"2014-10-04T21:21:32.379Z",
    "Creator":"Ayto.Sevilla",
    "EditDate":"2014-10-04T21:21:32.379Z",
    "Editor":"Ayto.Sevilla"
    }
  },
  {
    "type": "Feature",
    "geometry": {
       "type": "Point",
       "coordinates":  [ -5.970793,37.389927 ]
    },
    "properties": {
    "X":-5.970792673084735,
    "Y":37.38992666320577,
    "FID":67,
    "id_estacio":163,
    "Direccion":"Calle Sinaí",
    "Aproximaci":"Calle Baltazar Gracián",
    "CreationDate":"2014-10-04T21:21:32.379Z",
    "Creator":"Ayto.Sevilla",
    "EditDate":"2014-10-04T21:21:32.379Z",
    "Editor":"Ayto.Sevilla"
    }
  },
  {
    "type": "Feature",
    "geometry": {
       "type": "Point",
       "coordinates":  [ -5.993774,37.400818 ]
    },
    "properties": {
    "X":-5.993774272998339,
    "Y":37.40081811626693,
    "FID":68,
    "id_estacio":35,
    "Direccion":"Alameda de Hercules",
    "Aproximaci":"Calle Peris Mencheta",
    "CreationDate":"2014-10-04T21:21:32.379Z",
    "Creator":"Ayto.Sevilla",
    "EditDate":"2014-10-04T21:21:32.379Z",
    "Editor":"Ayto.Sevilla"
    }
  },
  {
    "type": "Feature",
    "geometry": {
       "type": "Point",
       "coordinates":  [ -5.998318,37.400543 ]
    },
    "properties": {
    "X":-5.998317951705421,
    "Y":37.40054265573681,
    "FID":69,
    "id_estacio":36,
    "Direccion":"Calle San Vicente",
    "Aproximaci":"Calle Guadalquivir",
    "CreationDate":"2014-10-04T21:21:32.379Z",
    "Creator":"Ayto.Sevilla",
    "EditDate":"2014-10-04T21:21:32.379Z",
    "Editor":"Ayto.Sevilla"
    }
  },
  {
    "type": "Feature",
    "geometry": {
       "type": "Point",
       "coordinates":  [ -5.965657,37.387638 ]
    },
    "properties": {
    "X":-5.965657004605397,
    "Y":37.387637693873444,
    "FID":70,
    "id_estacio":164,
    "Direccion":"Calle Luis Montoto",
    "Aproximaci":"Calle El Greco",
    "CreationDate":"2014-10-04T21:21:32.379Z",
    "Creator":"Ayto.Sevilla",
    "EditDate":"2014-10-04T21:21:32.379Z",
    "Editor":"Ayto.Sevilla"
    }
  },
  {
    "type": "Feature",
    "geometry": {
       "type": "Point",
       "coordinates":  [ -5.961011,37.387638 ]
    },
    "properties": {
    "X":-5.961010917955938,
    "Y":37.387637693873444,
    "FID":71,
    "id_estacio":165,
    "Direccion":"Avenida de Andalucia",
    "Aproximaci":"Centro Comercial Los Arcos",
    "CreationDate":"2014-10-04T21:21:32.379Z",
    "Creator":"Ayto.Sevilla",
    "EditDate":"2014-10-04T21:21:32.379Z",
    "Editor":"Ayto.Sevilla"
    }
  },
  {
    "type": "Feature",
    "geometry": {
       "type": "Point",
       "coordinates":  [ -5.99357,37.398609 ]
    },
    "properties": {
    "X":-5.99357035542885,
    "Y":37.39860869449067,
    "FID":72,
    "id_estacio":37,
    "Direccion":"Alameda de Hércules",
    "Aproximaci":"Calle Vulcano",
    "CreationDate":"2014-10-04T21:21:32.379Z",
    "Creator":"Ayto.Sevilla",
    "EditDate":"2014-10-04T21:21:32.379Z",
    "Editor":"Ayto.Sevilla"
    }
  },
  {
    "type": "Feature",
    "geometry": {
       "type": "Point",
       "coordinates":  [ -5.959222,37.388538 ]
    },
    "properties": {
    "X":-5.959222372225276,
    "Y":37.38853773037659,
    "FID":73,
    "id_estacio":166,
    "Direccion":"Ronda del Tamarguillo",
    "Aproximaci":"Centro Comercial Los Arcos",
    "CreationDate":"2014-10-04T21:21:32.379Z",
    "Creator":"Ayto.Sevilla",
    "EditDate":"2014-10-04T21:21:32.379Z",
    "Editor":"Ayto.Sevilla"
    }
  },
  {
    "type": "Feature",
    "geometry": {
       "type": "Point",
       "coordinates":  [ -6.011066,37.392025 ]
    },
    "properties": {
    "X":-6.011065943902375,
    "Y":37.39202500212775,
    "FID":74,
    "id_estacio":38,
    "Direccion":"Calle del Inca Garcilaso",
    "Aproximaci":"Calle Juan Antonio de Vizarrón",
    "CreationDate":"2014-10-04T21:21:32.379Z",
    "Creator":"Ayto.Sevilla",
    "EditDate":"2014-10-04T21:21:32.379Z",
    "Editor":"Ayto.Sevilla"
    }
  },
  {
    "type": "Feature",
    "geometry": {
       "type": "Point",
       "coordinates":  [ -5.964932,37.373352 ]
    },
    "properties": {
    "X":-5.964932064171119,
    "Y":37.37335200433865,
    "FID":75,
    "id_estacio":167,
    "Direccion":"Glorieta Bizco Amate",
    "Aproximaci":"Ramón y Cajal, Esq. Ronda",
    "CreationDate":"2014-10-04T21:21:32.379Z",
    "Creator":"Ayto.Sevilla",
    "EditDate":"2014-10-04T21:21:32.379Z",
    "Editor":"Ayto.Sevilla"
    }
  },
  {
    "type": "Feature",
    "geometry": {
       "type": "Point",
       "coordinates":  [ -5.967674,37.375114 ]
    },
    "properties": {
    "X":-5.967673722418246,
    "Y":37.375113860419034,
    "FID":76,
    "id_estacio":168,
    "Direccion":"Avenida Ramón y Cajal",
    "Aproximaci":"Avenida de la Ciudad Jardín",
    "CreationDate":"2014-10-04T21:21:32.379Z",
    "Creator":"Ayto.Sevilla",
    "EditDate":"2014-10-04T21:21:32.379Z",
    "Editor":"Ayto.Sevilla"
    }
  },
  {
    "type": "Feature",
    "geometry": {
       "type": "Point",
       "coordinates":  [ -5.97307,37.376698 ]
    },
    "properties": {
    "X":-5.973069902329978,
    "Y":37.37669792502388,
    "FID":77,
    "id_estacio":169,
    "Direccion":"Avenida Ramón y Cajal",
    "Aproximaci":"Calle Villegas Marmolejo",
    "CreationDate":"2014-10-04T21:21:32.379Z",
    "Creator":"Ayto.Sevilla",
    "EditDate":"2014-10-04T21:21:32.379Z",
    "Editor":"Ayto.Sevilla"
    }
  },
  {
    "type": "Feature",
    "geometry": {
       "type": "Point",
       "coordinates":  [ -5.998519,37.397881 ]
    },
    "properties": {
    "X":-5.998519174329084,
    "Y":37.397880769950234,
    "FID":78,
    "id_estacio":39,
    "Direccion":"Avenida de Torneo",
    "Aproximaci":"Calle Curtidurías",
    "CreationDate":"2014-10-04T21:21:32.379Z",
    "Creator":"Ayto.Sevilla",
    "EditDate":"2014-10-04T21:21:32.379Z",
    "Editor":"Ayto.Sevilla"
    }
  },
  {
    "type": "Feature",
    "geometry": {
       "type": "Point",
       "coordinates":  [ -5.968885,37.37899 ]
    },
    "properties": {
    "X":-5.968884651421246,
    "Y":37.37899008365883,
    "FID":79,
    "id_estacio":170,
    "Direccion":"Plaza Antonio Aparicio Herrero",
    "Aproximaci":" ",
    "CreationDate":"2014-10-04T21:21:32.379Z",
    "Creator":"Ayto.Sevilla",
    "EditDate":"2014-10-04T21:21:32.379Z",
    "Editor":"Ayto.Sevilla"
    }
  },
  {
    "type": "Feature",
    "geometry": {
       "type": "Point",
       "coordinates":  [ -5.986558,37.356396 ]
    },
    "properties": {
    "X":-5.986558106321033,
    "Y":37.35639595092166,
    "FID":80,
    "id_estacio":40,
    "Direccion":"Avenida Reina Mercedes",
    "Aproximaci":"Glorieta Alcalde de Parias Merry",
    "CreationDate":"2014-10-04T21:21:32.379Z",
    "Creator":"Ayto.Sevilla",
    "EditDate":"2014-10-04T21:21:32.379Z",
    "Editor":"Ayto.Sevilla"
    }
  },
  {
    "type": "Feature",
    "geometry": {
       "type": "Point",
       "coordinates":  [ -5.974922,37.366135 ]
    },
    "properties": {
    "X":-5.974922228445826,
    "Y":37.366134958539845,
    "FID":81,
    "id_estacio":171,
    "Direccion":"Calle Alfonso Lasso de la Vega",
    "Aproximaci":"Párroco Antonio González",
    "CreationDate":"2014-10-04T21:21:32.379Z",
    "Creator":"Ayto.Sevilla",
    "EditDate":"2014-10-04T21:21:32.379Z",
    "Editor":"Ayto.Sevilla"
    }
  },
  {
    "type": "Feature",
    "geometry": {
       "type": "Point",
       "coordinates":  [ -5.990966,37.399551 ]
    },
    "properties": {
    "X":-5.9909661394202,
    "Y":37.39955070398889,
    "FID":82,
    "id_estacio":41,
    "Direccion":"Plaza Calderón de la Barca",
    "Aproximaci":"Calle Amargura",
    "CreationDate":"2014-10-04T21:21:32.379Z",
    "Creator":"Ayto.Sevilla",
    "EditDate":"2014-10-04T21:21:32.379Z",
    "Editor":"Ayto.Sevilla"
    }
  },
  {
    "type": "Feature",
    "geometry": {
       "type": "Point",
       "coordinates":  [ -5.971252,37.36713 ]
    },
    "properties": {
    "X":-5.9712517121949,
    "Y":37.3671302082203,
    "FID":83,
    "id_estacio":172,
    "Direccion":"Ronda Tamarguillo",
    "Aproximaci":"Alfonso Laso de la Vega",
    "CreationDate":"2014-10-04T21:21:32.379Z",
    "Creator":"Ayto.Sevilla",
    "EditDate":"2014-10-04T21:21:32.379Z",
    "Editor":"Ayto.Sevilla"
    }
  },
  {
    "type": "Feature",
    "geometry": {
       "type": "Point",
       "coordinates":  [ -5.989523,37.398811 ]
    },
    "properties": {
    "X":-5.989523445073891,
    "Y":37.39881065661515,
    "FID":84,
    "id_estacio":42,
    "Direccion":"Plaza Cronista",
    "Aproximaci":"Calle Divina Pastora",
    "CreationDate":"2014-10-04T21:21:32.379Z",
    "Creator":"Ayto.Sevilla",
    "EditDate":"2014-10-04T21:21:32.379Z",
    "Editor":"Ayto.Sevilla"
    }
  },
  {
    "type": "Feature",
    "geometry": {
       "type": "Point",
       "coordinates":  [ -5.968101,37.370045 ]
    },
    "properties": {
    "X":-5.9681013204935,
    "Y":37.37004520000922,
    "FID":85,
    "id_estacio":173,
    "Direccion":"Ronda Tamarguillo",
    "Aproximaci":"Avenida de la Paz",
    "CreationDate":"2014-10-04T21:21:32.379Z",
    "Creator":"Ayto.Sevilla",
    "EditDate":"2014-10-04T21:21:32.379Z",
    "Editor":"Ayto.Sevilla"
    }
  },
  {
    "type": "Feature",
    "geometry": {
       "type": "Point",
       "coordinates":  [ -5.982737,37.399139 ]
    },
    "properties": {
    "X":-5.982736673102369,
    "Y":37.399138933111935,
    "FID":86,
    "id_estacio":43,
    "Direccion":"Ronda Capuchinos",
    "Aproximaci":"Calle Maestro Quiroga",
    "CreationDate":"2014-10-04T21:21:32.379Z",
    "Creator":"Ayto.Sevilla",
    "EditDate":"2014-10-04T21:21:32.379Z",
    "Editor":"Ayto.Sevilla"
    }
  },
  {
    "type": "Feature",
    "geometry": {
       "type": "Point",
       "coordinates":  [ -5.981774,37.398323 ]
    },
    "properties": {
    "X":-5.981773679117799,
    "Y":37.39832323472924,
    "FID":87,
    "id_estacio":44,
    "Direccion":"Ronda Capuchinos",
    "Aproximaci":"Calle Corinto",
    "CreationDate":"2014-10-04T21:21:32.379Z",
    "Creator":"Ayto.Sevilla",
    "EditDate":"2014-10-04T21:21:32.379Z",
    "Editor":"Ayto.Sevilla"
    }
  },
  {
    "type": "Feature",
    "geometry": {
       "type": "Point",
       "coordinates":  [ -5.960573,37.380611 ]
    },
    "properties": {
    "X":-5.960573438412578,
    "Y":37.380611185014814,
    "FID":88,
    "id_estacio":174,
    "Direccion":"Ronda Tamarguillo",
    "Aproximaci":"Marqués de Pickman",
    "CreationDate":"2014-10-04T21:21:32.379Z",
    "Creator":"Ayto.Sevilla",
    "EditDate":"2014-10-04T21:21:32.379Z",
    "Editor":"Ayto.Sevilla"
    }
  },
  {
    "type": "Feature",
    "geometry": {
       "type": "Point",
       "coordinates":  [ -5.977796,37.39991 ]
    },
    "properties": {
    "X":-5.977795939039711,
    "Y":37.39990966358349,
    "FID":89,
    "id_estacio":45,
    "Direccion":"Carretera de Carmona",
    "Aproximaci":"Calle de Francisco de Ariño",
    "CreationDate":"2014-10-04T21:21:32.379Z",
    "Creator":"Ayto.Sevilla",
    "EditDate":"2014-10-04T21:21:32.379Z",
    "Editor":"Ayto.Sevilla"
    }
  },
  {
    "type": "Feature",
    "geometry": {
       "type": "Point",
       "coordinates":  [ -5.960825,37.377731 ]
    },
    "properties": {
    "X":-5.960824966692131,
    "Y":37.37773086846469,
    "FID":90,
    "id_estacio":175,
    "Direccion":"Ronda Tamarguillo",
    "Aproximaci":"Plaza Ruperto Chapí",
    "CreationDate":"2014-10-04T21:21:32.379Z",
    "Creator":"Ayto.Sevilla",
    "EditDate":"2014-10-04T21:21:32.379Z",
    "Editor":"Ayto.Sevilla"
    }
  },
  {
    "type": "Feature",
    "geometry": {
       "type": "Point",
       "coordinates":  [ -5.984116,37.39761 ]
    },
    "properties": {
    "X":-5.984115587063492,
    "Y":37.39761029422626,
    "FID":91,
    "id_estacio":46,
    "Direccion":"Plaza del Pelicano",
    "Aproximaci":"Calle Enladrillada",
    "CreationDate":"2014-10-04T21:21:32.379Z",
    "Creator":"Ayto.Sevilla",
    "EditDate":"2014-10-04T21:21:32.379Z",
    "Editor":"Ayto.Sevilla"
    }
  },
  {
    "type": "Feature",
    "geometry": {
       "type": "Point",
       "coordinates":  [ -5.966566,37.37756 ]
    },
    "properties": {
    "X":-5.966566099672953,
    "Y":37.377560258884046,
    "FID":92,
    "id_estacio":176,
    "Direccion":"Avenida de la Ciudad Jardín",
    "Aproximaci":"Calle Profesor Braña",
    "CreationDate":"2014-10-04T21:21:32.379Z",
    "Creator":"Ayto.Sevilla",
    "EditDate":"2014-10-04T21:21:32.379Z",
    "Editor":"Ayto.Sevilla"
    }
  },
  {
    "type": "Feature",
    "geometry": {
       "type": "Point",
       "coordinates":  [ -5.987466,37.396458 ]
    },
    "properties": {
    "X":-5.987466303073258,
    "Y":37.396457728418234,
    "FID":93,
    "id_estacio":47,
    "Direccion":"Calle Hiniesta",
    "Aproximaci":"Convento Santa Isabel",
    "CreationDate":"2014-10-04T21:21:32.379Z",
    "Creator":"Ayto.Sevilla",
    "EditDate":"2014-10-04T21:21:32.379Z",
    "Editor":"Ayto.Sevilla"
    }
  },
  {
    "type": "Feature",
    "geometry": {
       "type": "Point",
       "coordinates":  [ -5.991182,37.397221 ]
    },
    "properties": {
    "X":-5.991181735088389,
    "Y":37.397221349851414,
    "FID":94,
    "id_estacio":48,
    "Direccion":"Calle Churruca",
    "Aproximaci":"Calle González Cuadrado",
    "CreationDate":"2014-10-04T21:21:32.379Z",
    "Creator":"Ayto.Sevilla",
    "EditDate":"2014-10-04T21:21:32.379Z",
    "Editor":"Ayto.Sevilla"
    }
  },
  {
    "type": "Feature",
    "geometry": {
       "type": "Point",
       "coordinates":  [ -5.969032,37.373112 ]
    },
    "properties": {
    "X":-5.969031975127861,
    "Y":37.37311213742546,
    "FID":95,
    "id_estacio":177,
    "Direccion":"Avenida Alcalde Juan Fernández",
    "Aproximaci":"Calle Profesor Buenaventura",
    "CreationDate":"2014-10-04T21:21:32.379Z",
    "Creator":"Ayto.Sevilla",
    "EditDate":"2014-10-04T21:21:32.379Z",
    "Editor":"Ayto.Sevilla"
    }
  },
  {
    "type": "Feature",
    "geometry": {
       "type": "Point",
       "coordinates":  [ -5.973895,37.373211 ]
    },
    "properties": {
    "X":-5.973894555760773,
    "Y":37.3732106542862,
    "FID":96,
    "id_estacio":178,
    "Direccion":"Calle Ibiza",
    "Aproximaci":"Avenida de la Paz",
    "CreationDate":"2014-10-04T21:21:32.379Z",
    "Creator":"Ayto.Sevilla",
    "EditDate":"2014-10-04T21:21:32.379Z",
    "Editor":"Ayto.Sevilla"
    }
  },
  {
    "type": "Feature",
    "geometry": {
       "type": "Point",
       "coordinates":  [ -5.993906,37.396938 ]
    },
    "properties": {
    "X":-5.99390632534513,
    "Y":37.39693802579761,
    "FID":97,
    "id_estacio":49,
    "Direccion":"Alameda de Hercules",
    "Aproximaci":"Calle Amor de Dios",
    "CreationDate":"2014-10-04T21:21:32.379Z",
    "Creator":"Ayto.Sevilla",
    "EditDate":"2014-10-04T21:21:32.379Z",
    "Editor":"Ayto.Sevilla"
    }
  },
  {
    "type": "Feature",
    "geometry": {
       "type": "Point",
       "coordinates":  [ -5.99669,37.397572 ]
    },
    "properties": {
    "X":-5.996690204410603,
    "Y":37.39757175670858,
    "FID":98,
    "id_estacio":50,
    "Direccion":"Calle de Hernán Cortés",
    "Aproximaci":"Calle Eslava",
    "CreationDate":"2014-10-04T21:21:32.379Z",
    "Creator":"Ayto.Sevilla",
    "EditDate":"2014-10-04T21:21:32.379Z",
    "Editor":"Ayto.Sevilla"
    }
  },
  {
    "type": "Feature",
    "geometry": {
       "type": "Point",
       "coordinates":  [ -5.98514,37.413208 ]
    },
    "properties": {
    "X":-5.985139666487388,
    "Y":37.41320779752666,
    "FID":99,
    "id_estacio":179,
    "Direccion":"Ronda Urbana Norte",
    "Aproximaci":"Juventudes Musicales",
    "CreationDate":"2014-10-04T21:21:32.379Z",
    "Creator":"Ayto.Sevilla",
    "EditDate":"2014-10-04T21:21:32.379Z",
    "Editor":"Ayto.Sevilla"
    }
  },
  {
    "type": "Feature",
    "geometry": {
       "type": "Point",
       "coordinates":  [ -6.002384,37.395599 ]
    },
    "properties": {
    "X":-6.00238372668136,
    "Y":37.39559918026364,
    "FID":100,
    "id_estacio":51,
    "Direccion":"Avenida Torneo",
    "Aproximaci":"Calle Luis Rey Romero",
    "CreationDate":"2014-10-04T21:21:32.379Z",
    "Creator":"Ayto.Sevilla",
    "EditDate":"2014-10-04T21:21:32.379Z",
    "Editor":"Ayto.Sevilla"
    }
  },
  {
    "type": "Feature",
    "geometry": {
       "type": "Point",
       "coordinates":  [ -5.984358,37.409676 ]
    },
    "properties": {
    "X":-5.984358132190204,
    "Y":37.409675844702036,
    "FID":101,
    "id_estacio":180,
    "Direccion":"Calle Doctor Jaime Marcos",
    "Aproximaci":"Calle Doctor Fedriani",
    "CreationDate":"2014-10-04T21:21:32.379Z",
    "Creator":"Ayto.Sevilla",
    "EditDate":"2014-10-04T21:21:32.379Z",
    "Editor":"Ayto.Sevilla"
    }
  },
  {
    "type": "Feature",
    "geometry": {
       "type": "Point",
       "coordinates":  [ -6.010476,37.394142 ]
    },
    "properties": {
    "X":-6.010475750760715,
    "Y":37.394141838271445,
    "FID":102,
    "id_estacio":52,
    "Direccion":"Calle del Inca Garcilaso",
    "Aproximaci":"Calle Jerónimo de Aguilar",
    "CreationDate":"2014-10-04T21:21:32.379Z",
    "Creator":"Ayto.Sevilla",
    "EditDate":"2014-10-04T21:21:32.379Z",
    "Editor":"Ayto.Sevilla"
    }
  },
  {
    "type": "Feature",
    "geometry": {
       "type": "Point",
       "coordinates":  [ -5.982516,37.413418 ]
    },
    "properties": {
    "X":-5.982515687542495,
    "Y":37.41341828238641,
    "FID":103,
    "id_estacio":181,
    "Direccion":"Ronda Urbana Norte",
    "Aproximaci":"Calle Doctor Fedriani",
    "CreationDate":"2014-10-04T21:21:32.379Z",
    "Creator":"Ayto.Sevilla",
    "EditDate":"2014-10-04T21:21:32.379Z",
    "Editor":"Ayto.Sevilla"
    }
  },
  {
    "type": "Feature",
    "geometry": {
       "type": "Point",
       "coordinates":  [ -5.999584,37.389301 ]
    },
    "properties": {
    "X":-5.999583677940766,
    "Y":37.38930071875937,
    "FID":104,
    "id_estacio":53,
    "Direccion":"Calle Reyes Católicos",
    "Aproximaci":"Calle Gravina",
    "CreationDate":"2014-10-04T21:21:32.379Z",
    "Creator":"Ayto.Sevilla",
    "EditDate":"2014-10-04T21:21:32.379Z",
    "Editor":"Ayto.Sevilla"
    }
  },
  {
    "type": "Feature",
    "geometry": {
       "type": "Point",
       "coordinates":  [ -5.97387,37.414639 ]
    },
    "properties": {
    "X":-5.973870301248109,
    "Y":37.41463908290895,
    "FID":105,
    "id_estacio":182,
    "Direccion":"Calle Victoria Kent",
    "Aproximaci":"Avenida Alcalde Manuel del Valle",
    "CreationDate":"2014-10-04T21:21:32.379Z",
    "Creator":"Ayto.Sevilla",
    "EditDate":"2014-10-04T21:21:32.379Z",
    "Editor":"Ayto.Sevilla"
    }
  },
  {
    "type": "Feature",
    "geometry": {
       "type": "Point",
       "coordinates":  [ -5.990926,37.395222 ]
    },
    "properties": {
    "X":-5.990925715232415,
    "Y":37.395221644337745,
    "FID":106,
    "id_estacio":54,
    "Direccion":"Plaza San Juan de la Palma",
    "Aproximaci":"Iglesia",
    "CreationDate":"2014-10-04T21:21:32.379Z",
    "Creator":"Ayto.Sevilla",
    "EditDate":"2014-10-04T21:21:32.379Z",
    "Editor":"Ayto.Sevilla"
    }
  },
  {
    "type": "Feature",
    "geometry": {
       "type": "Point",
       "coordinates":  [ -5.983788,37.393433 ]
    },
    "properties": {
    "X":-5.983787701984788,
    "Y":37.393433140177414,
    "FID":107,
    "id_estacio":55,
    "Direccion":"Calle de Maria Auxiliadora",
    "Aproximaci":"Calle Gonzalo de Bilbao",
    "CreationDate":"2014-10-04T21:21:32.379Z",
    "Creator":"Ayto.Sevilla",
    "EditDate":"2014-10-04T21:21:32.379Z",
    "Editor":"Ayto.Sevilla"
    }
  },
  {
    "type": "Feature",
    "geometry": {
       "type": "Point",
       "coordinates":  [ -5.987667,37.393101 ]
    },
    "properties": {
    "X":-5.987666627381623,
    "Y":37.393101270186335,
    "FID":108,
    "id_estacio":56,
    "Direccion":"Plaza Ponce de Leon",
    "Aproximaci":"Calle Juan de Mesa",
    "CreationDate":"2014-10-04T21:21:32.379Z",
    "Creator":"Ayto.Sevilla",
    "EditDate":"2014-10-04T21:21:32.379Z",
    "Editor":"Ayto.Sevilla"
    }
  },
  {
    "type": "Feature",
    "geometry": {
       "type": "Point",
       "coordinates":  [ -5.989921,37.392216 ]
    },
    "properties": {
    "X":-5.989921398744762,
    "Y":37.39221627636013,
    "FID":109,
    "id_estacio":57,
    "Direccion":"Plaza Cristo de Burgos",
    "Aproximaci":"Plaza de San Pedro",
    "CreationDate":"2014-10-04T21:21:32.379Z",
    "Creator":"Ayto.Sevilla",
    "EditDate":"2014-10-04T21:21:32.379Z",
    "Editor":"Ayto.Sevilla"
    }
  },
  {
    "type": "Feature",
    "geometry": {
       "type": "Point",
       "coordinates":  [ -5.971348,37.410767 ]
    },
    "properties": {
    "X":-5.971347831930294,
    "Y":37.41076684346091,
    "FID":110,
    "id_estacio":183,
    "Direccion":"Alcalde Manuel del Valle",
    "Aproximaci":"Calle Pino Montano",
    "CreationDate":"2014-10-04T21:21:32.379Z",
    "Creator":"Ayto.Sevilla",
    "EditDate":"2014-10-04T21:21:32.379Z",
    "Editor":"Ayto.Sevilla"
    }
  },
  {
    "type": "Feature",
    "geometry": {
       "type": "Point",
       "coordinates":  [ -5.991683,37.39426 ]
    },
    "properties": {
    "X":-5.991682995016935,
    "Y":37.39426031081374,
    "FID":111,
    "id_estacio":58,
    "Direccion":"Calle Regina",
    "Aproximaci":"Plaza de la Encarnación",
    "CreationDate":"2014-10-04T21:21:32.379Z",
    "Creator":"Ayto.Sevilla",
    "EditDate":"2014-10-04T21:21:32.379Z",
    "Editor":"Ayto.Sevilla"
    }
  },
  {
    "type": "Feature",
    "geometry": {
       "type": "Point",
       "coordinates":  [ -5.989169,37.371174 ]
    },
    "properties": {
    "X":-5.989168610536664,
    "Y":37.371173898960805,
    "FID":112,
    "id_estacio":59,
    "Direccion":"Avenida de la Palmera",
    "Aproximaci":"Avenida del Líbano",
    "CreationDate":"2014-10-04T21:21:32.379Z",
    "Creator":"Ayto.Sevilla",
    "EditDate":"2014-10-04T21:21:32.379Z",
    "Editor":"Ayto.Sevilla"
    }
  },
  {
    "type": "Feature",
    "geometry": {
       "type": "Point",
       "coordinates":  [ -5.970511,37.408543 ]
    },
    "properties": {
    "X":-5.970510602085501,
    "Y":37.40854273041324,
    "FID":113,
    "id_estacio":184,
    "Direccion":"Avenida Alcalde Manuel del Valle",
    "Aproximaci":"Calle San Juan de la Salle",
    "CreationDate":"2014-10-04T21:21:32.379Z",
    "Creator":"Ayto.Sevilla",
    "EditDate":"2014-10-04T21:21:32.379Z",
    "Editor":"Ayto.Sevilla"
    }
  },
  {
    "type": "Feature",
    "geometry": {
       "type": "Point",
       "coordinates":  [ -5.996835,37.39389 ]
    },
    "properties": {
    "X":-5.99683483317136,
    "Y":37.39388990507412,
    "FID":114,
    "id_estacio":60,
    "Direccion":"Plaza de la Concordia",
    "Aproximaci":"Calle Teniente Borges",
    "CreationDate":"2014-10-04T21:21:32.379Z",
    "Creator":"Ayto.Sevilla",
    "EditDate":"2014-10-04T21:21:32.379Z",
    "Editor":"Ayto.Sevilla"
    }
  },
  {
    "type": "Feature",
    "geometry": {
       "type": "Point",
       "coordinates":  [ -5.999372,37.392838 ]
    },
    "properties": {
    "X":-5.999371675533701,
    "Y":37.39283791424459,
    "FID":115,
    "id_estacio":61,
    "Direccion":"Plaza del Museo",
    "Aproximaci":"Calle Alfonso XII",
    "CreationDate":"2014-10-04T21:21:32.379Z",
    "Creator":"Ayto.Sevilla",
    "EditDate":"2014-10-04T21:21:32.379Z",
    "Editor":"Ayto.Sevilla"
    }
  },
  {
    "type": "Feature",
    "geometry": {
       "type": "Point",
       "coordinates":  [ -6.003194,37.391129 ]
    },
    "properties": {
    "X":-6.00319400706763,
    "Y":37.39112928980677,
    "FID":116,
    "id_estacio":62,
    "Direccion":"Plaza de Armas",
    "Aproximaci":"Avenida Torneo (estación de autobuses)",
    "CreationDate":"2014-10-04T21:21:32.379Z",
    "Creator":"Ayto.Sevilla",
    "EditDate":"2014-10-04T21:21:32.379Z",
    "Editor":"Ayto.Sevilla"
    }
  },
  {
    "type": "Feature",
    "geometry": {
       "type": "Point",
       "coordinates":  [ -5.998184,37.390331 ]
    },
    "properties": {
    "X":-5.998184102728101,
    "Y":37.39033134742647,
    "FID":117,
    "id_estacio":63,
    "Direccion":"Calle San Pablo",
    "Aproximaci":"Calle Bailén",
    "CreationDate":"2014-10-04T21:21:32.379Z",
    "Creator":"Ayto.Sevilla",
    "EditDate":"2014-10-04T21:21:32.379Z",
    "Editor":"Ayto.Sevilla"
    }
  },
  {
    "type": "Feature",
    "geometry": {
       "type": "Point",
       "coordinates":  [ -5.968862,37.405136 ]
    },
    "properties": {
    "X":-5.968862193539143,
    "Y":37.40513614885747,
    "FID":118,
    "id_estacio":185,
    "Direccion":"Avenida Alcalde Manuel del Valle",
    "Aproximaci":"Calle Alejandro Sawa",
    "CreationDate":"2014-10-04T21:21:32.379Z",
    "Creator":"Ayto.Sevilla",
    "EditDate":"2014-10-04T21:21:32.379Z",
    "Editor":"Ayto.Sevilla"
    }
  },
  {
    "type": "Feature",
    "geometry": {
       "type": "Point",
       "coordinates":  [ -5.991134,37.389816 ]
    },
    "properties": {
    "X":-5.991134124378325,
    "Y":37.38981603486399,
    "FID":119,
    "id_estacio":64,
    "Direccion":"Calle Cuesta del Rosario",
    "Aproximaci":"Plaza de la Pescadería",
    "CreationDate":"2014-10-04T21:21:32.379Z",
    "Creator":"Ayto.Sevilla",
    "EditDate":"2014-10-04T21:21:32.379Z",
    "Editor":"Ayto.Sevilla"
    }
  },
  {
    "type": "Feature",
    "geometry": {
       "type": "Point",
       "coordinates":  [ -5.988126,37.391354 ]
    },
    "properties": {
    "X":-5.988125666491822,
    "Y":37.3913541110368,
    "FID":120,
    "id_estacio":65,
    "Direccion":"Calle Alhóndiga",
    "Aproximaci":"Cardenal Cervantes",
    "CreationDate":"2014-10-04T21:21:32.379Z",
    "Creator":"Ayto.Sevilla",
    "EditDate":"2014-10-04T21:21:32.379Z",
    "Editor":"Ayto.Sevilla"
    }
  },
  {
    "type": "Feature",
    "geometry": {
       "type": "Point",
       "coordinates":  [ -5.981848,37.393669 ]
    },
    "properties": {
    "X":-5.981848239286387,
    "Y":37.39366865992486,
    "FID":121,
    "id_estacio":66,
    "Direccion":"Calle Arroyo",
    "Aproximaci":"Avenida José Laguillo",
    "CreationDate":"2014-10-04T21:21:32.379Z",
    "Creator":"Ayto.Sevilla",
    "EditDate":"2014-10-04T21:21:32.379Z",
    "Editor":"Ayto.Sevilla"
    }
  },
  {
    "type": "Feature",
    "geometry": {
       "type": "Point",
       "coordinates":  [ -5.97309,37.408657 ]
    },
    "properties": {
    "X":-5.973089665266222,
    "Y":37.408656898876174,
    "FID":122,
    "id_estacio":186,
    "Direccion":"Calle Orfebre Dominguez Vázquez",
    "Aproximaci":"Calle Pino Montano",
    "CreationDate":"2014-10-04T21:21:32.379Z",
    "Creator":"Ayto.Sevilla",
    "EditDate":"2014-10-04T21:21:32.379Z",
    "Editor":"Ayto.Sevilla"
    }
  },
  {
    "type": "Feature",
    "geometry": {
       "type": "Point",
       "coordinates":  [ -6.007303,37.404152 ]
    },
    "properties": {
    "X":-6.007302901177178,
    "Y":37.40415210746394,
    "FID":123,
    "id_estacio":67,
    "Direccion":"Calle Leonardo Da Vinci",
    "Aproximaci":"Calle Albert Einstein",
    "CreationDate":"2014-10-04T21:21:32.379Z",
    "Creator":"Ayto.Sevilla",
    "EditDate":"2014-10-04T21:21:32.379Z",
    "Editor":"Ayto.Sevilla"
    }
  },
  {
    "type": "Feature",
    "geometry": {
       "type": "Point",
       "coordinates":  [ -5.964004,37.395451 ]
    },
    "properties": {
    "X":-5.964004104482617,
    "Y":37.39545073536271,
    "FID":124,
    "id_estacio":187,
    "Direccion":"Calle Doctor Laffon",
    "Aproximaci":"Calle Efeso",
    "CreationDate":"2014-10-04T21:21:32.379Z",
    "Creator":"Ayto.Sevilla",
    "EditDate":"2014-10-04T21:21:32.379Z",
    "Editor":"Ayto.Sevilla"
    }
  },
  {
    "type": "Feature",
    "geometry": {
       "type": "Point",
       "coordinates":  [ -5.979951,37.390232 ]
    },
    "properties": {
    "X":-5.979950997406333,
    "Y":37.390232139327594,
    "FID":125,
    "id_estacio":68,
    "Direccion":"Calle Juan Antonio Cabestany",
    "Aproximaci":"Calle Júpiter",
    "CreationDate":"2014-10-04T21:21:32.379Z",
    "Creator":"Ayto.Sevilla",
    "EditDate":"2014-10-04T21:21:32.379Z",
    "Editor":"Ayto.Sevilla"
    }
  },
  {
    "type": "Feature",
    "geometry": {
       "type": "Point",
       "coordinates":  [ -5.963385,37.372593 ]
    },
    "properties": {
    "X":-5.963385165251872,
    "Y":37.3725931370445,
    "FID":126,
    "id_estacio":188,
    "Direccion":"Avenida Hytasa",
    "Aproximaci":"Calle Romeral",
    "CreationDate":"2014-10-04T21:21:32.379Z",
    "Creator":"Ayto.Sevilla",
    "EditDate":"2014-10-04T21:21:32.379Z",
    "Editor":"Ayto.Sevilla"
    }
  },
  {
    "type": "Feature",
    "geometry": {
       "type": "Point",
       "coordinates":  [ -5.978719,37.392132 ]
    },
    "properties": {
    "X":-5.978719407151792,
    "Y":37.39213205866122,
    "FID":127,
    "id_estacio":69,
    "Direccion":"Calle Jose Laguillo",
    "Aproximaci":"Calle Pablo Iglesias",
    "CreationDate":"2014-10-04T21:21:32.379Z",
    "Creator":"Ayto.Sevilla",
    "EditDate":"2014-10-04T21:21:32.379Z",
    "Editor":"Ayto.Sevilla"
    }
  },
  {
    "type": "Feature",
    "geometry": {
       "type": "Point",
       "coordinates":  [ -5.97621,37.391315 ]
    },
    "properties": {
    "X":-5.97621041256324,
    "Y":37.3913148565849,
    "FID":128,
    "id_estacio":70,
    "Direccion":"Estación Renfe Santa Justa",
    "Aproximaci":"Estación RENFE Santa Justa",
    "CreationDate":"2014-10-04T21:21:32.379Z",
    "Creator":"Ayto.Sevilla",
    "EditDate":"2014-10-04T21:21:32.379Z",
    "Editor":"Ayto.Sevilla"
    }
  },
  {
    "type": "Feature",
    "geometry": {
       "type": "Point",
       "coordinates":  [ -5.974438,37.389893 ]
    },
    "properties": {
    "X":-5.974438036507666,
    "Y":37.38989311785489,
    "FID":129,
    "id_estacio":71,
    "Direccion":"Avenida Kansas City",
    "Aproximaci":"Hotel Occidental",
    "CreationDate":"2014-10-04T21:21:32.379Z",
    "Creator":"Ayto.Sevilla",
    "EditDate":"2014-10-04T21:21:32.379Z",
    "Editor":"Ayto.Sevilla"
    }
  },
  {
    "type": "Feature",
    "geometry": {
       "type": "Point",
       "coordinates":  [ -5.982777,37.390732 ]
    },
    "properties": {
    "X":-5.982777097290153,
    "Y":37.39073174712442,
    "FID":130,
    "id_estacio":72,
    "Direccion":"Calle Amador de los Rios",
    "Aproximaci":"Calle Lópe de Vega",
    "CreationDate":"2014-10-04T21:21:32.379Z",
    "Creator":"Ayto.Sevilla",
    "EditDate":"2014-10-04T21:21:32.379Z",
    "Editor":"Ayto.Sevilla"
    }
  },
  {
    "type": "Feature",
    "geometry": {
       "type": "Point",
       "coordinates":  [ -5.959466,37.370079 ]
    },
    "properties": {
    "X":-5.959465815667253,
    "Y":37.37007875423938,
    "FID":131,
    "id_estacio":189,
    "Direccion":"Avenida Hytasa",
    "Aproximaci":"Nuestra Señora de los Dolores",
    "CreationDate":"2014-10-04T21:21:32.379Z",
    "Creator":"Ayto.Sevilla",
    "EditDate":"2014-10-04T21:21:32.379Z",
    "Editor":"Ayto.Sevilla"
    }
  },
  {
    "type": "Feature",
    "geometry": {
       "type": "Point",
       "coordinates":  [ -5.984488,37.38953 ]
    },
    "properties": {
    "X":-5.984488387906402,
    "Y":37.38952982788037,
    "FID":132,
    "id_estacio":73,
    "Direccion":"Plaza San Agustin",
    "Aproximaci":"Calle Concepción",
    "CreationDate":"2014-10-04T21:21:32.379Z",
    "Creator":"Ayto.Sevilla",
    "EditDate":"2014-10-04T21:21:32.379Z",
    "Editor":"Ayto.Sevilla"
    }
  },
  {
    "type": "Feature",
    "geometry": {
       "type": "Point",
       "coordinates":  [ -5.957272,37.368774 ]
    },
    "properties": {
    "X":-5.95727212974344,
    "Y":37.368773697801736,
    "FID":133,
    "id_estacio":190,
    "Direccion":"Avenida Hytasa",
    "Aproximaci":"Calle Herramienta",
    "CreationDate":"2014-10-04T21:21:32.379Z",
    "Creator":"Ayto.Sevilla",
    "EditDate":"2014-10-04T21:21:32.379Z",
    "Editor":"Ayto.Sevilla"
    }
  },
  {
    "type": "Feature",
    "geometry": {
       "type": "Point",
       "coordinates":  [ -5.986953,37.389713 ]
    },
    "properties": {
    "X":-5.986953365046046,
    "Y":37.389713257419544,
    "FID":134,
    "id_estacio":74,
    "Direccion":"Plaza Pilatos",
    "Aproximaci":"Calle San Esteban",
    "CreationDate":"2014-10-04T21:21:32.379Z",
    "Creator":"Ayto.Sevilla",
    "EditDate":"2014-10-04T21:21:32.379Z",
    "Editor":"Ayto.Sevilla"
    }
  },
  {
    "type": "Feature",
    "geometry": {
       "type": "Point",
       "coordinates":  [ -6.008913,37.37838 ]
    },
    "properties": {
    "X":-6.008912682166347,
    "Y":37.37837975240399,
    "FID":135,
    "id_estacio":191,
    "Direccion":"Glorieta Carlos Cano",
    "Aproximaci":"Calle Blas Infante",
    "CreationDate":"2014-10-04T21:21:32.379Z",
    "Creator":"Ayto.Sevilla",
    "EditDate":"2014-10-04T21:21:32.379Z",
    "Editor":"Ayto.Sevilla"
    }
  },
  {
    "type": "Feature",
    "geometry": {
       "type": "Point",
       "coordinates":  [ -5.993839,37.388126 ]
    },
    "properties": {
    "X":-5.993838951698821,
    "Y":37.388125898995554,
    "FID":136,
    "id_estacio":75,
    "Direccion":"Plaza San Francisco",
    "Aproximaci":"Calle Hernando Colón",
    "CreationDate":"2014-10-04T21:21:32.379Z",
    "Creator":"Ayto.Sevilla",
    "EditDate":"2014-10-04T21:21:32.379Z",
    "Editor":"Ayto.Sevilla"
    }
  },
  {
    "type": "Feature",
    "geometry": {
       "type": "Point",
       "coordinates":  [ -5.995605,37.388912 ]
    },
    "properties": {
    "X":-5.995605039547381,
    "Y":37.388911731265075,
    "FID":137,
    "id_estacio":76,
    "Direccion":"Plaza Nueva",
    "Aproximaci":"Calle Jaen",
    "CreationDate":"2014-10-04T21:21:32.379Z",
    "Creator":"Ayto.Sevilla",
    "EditDate":"2014-10-04T21:21:32.379Z",
    "Editor":"Ayto.Sevilla"
    }
  },
  {
    "type": "Feature",
    "geometry": {
       "type": "Point",
       "coordinates":  [ -6.011536,37.378338 ]
    },
    "properties": {
    "X":-6.011535762795976,
    "Y":37.37833834963601,
    "FID":138,
    "id_estacio":192,
    "Direccion":"Avenida de Alvar Nuñez",
    "Aproximaci":"Calle Collante",
    "CreationDate":"2014-10-04T21:21:32.379Z",
    "Creator":"Ayto.Sevilla",
    "EditDate":"2014-10-04T21:21:32.379Z",
    "Editor":"Ayto.Sevilla"
    }
  },
  {
    "type": "Feature",
    "geometry": {
       "type": "Point",
       "coordinates":  [ -6.007778,37.389545 ]
    },
    "properties": {
    "X":-6.007778109962497,
    "Y":37.3895448163031,
    "FID":139,
    "id_estacio":77,
    "Direccion":"Plaza Chapina",
    "Aproximaci":"Hotel Abba Triana",
    "CreationDate":"2014-10-04T21:21:32.379Z",
    "Creator":"Ayto.Sevilla",
    "EditDate":"2014-10-04T21:21:32.379Z",
    "Editor":"Ayto.Sevilla"
    }
  },
  {
    "type": "Feature",
    "geometry": {
       "type": "Point",
       "coordinates":  [ -6.011977,37.38113 ]
    },
    "properties": {
    "X":-6.011976835600459,
    "Y":37.38113012991581,
    "FID":140,
    "id_estacio":193,
    "Direccion":"Avenida de Coria",
    "Aproximaci":"Calle Coruña",
    "CreationDate":"2014-10-04T21:21:32.379Z",
    "Creator":"Ayto.Sevilla",
    "EditDate":"2014-10-04T21:21:32.379Z",
    "Editor":"Ayto.Sevilla"
    }
  },
  {
    "type": "Feature",
    "geometry": {
       "type": "Point",
       "coordinates":  [ -6.010287,37.388588 ]
    },
    "properties": {
    "X":-6.01028710455105,
    "Y":37.388587692435316,
    "FID":141,
    "id_estacio":78,
    "Direccion":"Calle Alfareria",
    "Aproximaci":"Ronda de Triana",
    "CreationDate":"2014-10-04T21:21:32.379Z",
    "Creator":"Ayto.Sevilla",
    "EditDate":"2014-10-04T21:21:32.379Z",
    "Editor":"Ayto.Sevilla"
    }
  },
  {
    "type": "Feature",
    "geometry": {
       "type": "Point",
       "coordinates":  [ -5.973251,37.418633 ]
    },
    "properties": {
    "X":-5.973251362017364,
    "Y":37.41863312347845,
    "FID":142,
    "id_estacio":194,
    "Direccion":"Calle Parque de Doñana",
    "Aproximaci":"Calle Corral de los Olmos",
    "CreationDate":"2014-10-04T21:21:32.379Z",
    "Creator":"Ayto.Sevilla",
    "EditDate":"2014-10-04T21:21:32.379Z",
    "Editor":"Ayto.Sevilla"
    }
  },
  {
    "type": "Feature",
    "geometry": {
       "type": "Point",
       "coordinates":  [ -5.98699,37.388386 ]
    },
    "properties": {
    "X":-5.986990195972674,
    "Y":37.388385702764495,
    "FID":143,
    "id_estacio":79,
    "Direccion":"Plaza de las Mercedarias",
    "Aproximaci":"Calle Ibarra",
    "CreationDate":"2014-10-04T21:21:32.379Z",
    "Creator":"Ayto.Sevilla",
    "EditDate":"2014-10-04T21:21:32.379Z",
    "Editor":"Ayto.Sevilla"
    }
  },
  {
    "type": "Feature",
    "geometry": {
       "type": "Point",
       "coordinates":  [ -5.971645,37.421741 ]
    },
    "properties": {
    "X":-5.971645174289351,
    "Y":37.42174087907266,
    "FID":144,
    "id_estacio":195,
    "Direccion":"Calle Corral del Agua",
    "Aproximaci":"Calle Camino de los Toros",
    "CreationDate":"2014-10-04T21:21:32.379Z",
    "Creator":"Ayto.Sevilla",
    "EditDate":"2014-10-04T21:21:32.379Z",
    "Editor":"Ayto.Sevilla"
    }
  },
  {
    "type": "Feature",
    "geometry": {
       "type": "Point",
       "coordinates":  [ -5.970094,37.424683 ]
    },
    "properties": {
    "X":-5.970093783793684,
    "Y":37.42468299714954,
    "FID":145,
    "id_estacio":196,
    "Direccion":"Calle Estrella Canopus",
    "Aproximaci":"Calle Estrella Betelgeuse",
    "CreationDate":"2014-10-04T21:21:32.379Z",
    "Creator":"Ayto.Sevilla",
    "EditDate":"2014-10-04T21:21:32.379Z",
    "Editor":"Ayto.Sevilla"
    }
  },
  {
    "type": "Feature",
    "geometry": {
       "type": "Point",
       "coordinates":  [ -5.981026,37.387627 ]
    },
    "properties": {
    "X":-5.981026280801419,
    "Y":37.387626987585136,
    "FID":146,
    "id_estacio":80,
    "Direccion":"Calle Luis Montoto",
    "Aproximaci":"Calle Alberto Duero",
    "CreationDate":"2014-10-04T21:21:32.379Z",
    "Creator":"Ayto.Sevilla",
    "EditDate":"2014-10-04T21:21:32.379Z",
    "Editor":"Ayto.Sevilla"
    }
  },
  {
    "type": "Feature",
    "geometry": {
       "type": "Point",
       "coordinates":  [ -5.966408,37.423416 ]
    },
    "properties": {
    "X":-5.966407996182935,
    "Y":37.42341598860027,
    "FID":147,
    "id_estacio":197,
    "Direccion":"Calle Agricultores",
    "Aproximaci":"Calle Estrella Betelgeuse",
    "CreationDate":"2014-10-04T21:21:32.379Z",
    "Creator":"Ayto.Sevilla",
    "EditDate":"2014-10-04T21:21:32.379Z",
    "Editor":"Ayto.Sevilla"
    }
  },
  {
    "type": "Feature",
    "geometry": {
       "type": "Point",
       "coordinates":  [ -5.971005,37.387157 ]
    },
    "properties": {
    "X":-5.971004675491767,
    "Y":37.38715733690044,
    "FID":148,
    "id_estacio":81,
    "Direccion":"Calle Luis Montoto",
    "Aproximaci":"Calle Benitos Mas y Prat",
    "CreationDate":"2014-10-04T21:21:32.379Z",
    "Creator":"Ayto.Sevilla",
    "EditDate":"2014-10-04T21:21:32.379Z",
    "Editor":"Ayto.Sevilla"
    }
  },
  {
    "type": "Feature",
    "geometry": {
       "type": "Point",
       "coordinates":  [ -5.967942,37.420444 ]
    },
    "properties": {
    "X":-5.967942318688217,
    "Y":37.420443856262004,
    "FID":149,
    "id_estacio":198,
    "Direccion":"Calle Mar de Alborán",
    "Aproximaci":"Calle Camino de los Toros",
    "CreationDate":"2014-10-04T21:21:32.379Z",
    "Creator":"Ayto.Sevilla",
    "EditDate":"2014-10-04T21:21:32.379Z",
    "Editor":"Ayto.Sevilla"
    }
  },
  {
    "type": "Feature",
    "geometry": {
       "type": "Point",
       "coordinates":  [ -5.974814,37.387093 ]
    },
    "properties": {
    "X":-5.974814430611731,
    "Y":37.38709309873613,
    "FID":150,
    "id_estacio":82,
    "Direccion":"Calle Luis Montoto",
    "Aproximaci":"Calle Maese Farfán",
    "CreationDate":"2014-10-04T21:21:32.379Z",
    "Creator":"Ayto.Sevilla",
    "EditDate":"2014-10-04T21:21:32.379Z",
    "Editor":"Ayto.Sevilla"
    }
  },
  {
    "type": "Feature",
    "geometry": {
       "type": "Point",
       "coordinates":  [ -5.969311,37.417839 ]
    },
    "properties": {
    "X":-5.969311351181203,
    "Y":37.417839041272735,
    "FID":151,
    "id_estacio":199,
    "Direccion":"Calle Mar de Alborán",
    "Aproximaci":"Corral de los Olmos",
    "CreationDate":"2014-10-04T21:21:32.379Z",
    "Creator":"Ayto.Sevilla",
    "EditDate":"2014-10-04T21:21:32.379Z",
    "Editor":"Ayto.Sevilla"
    }
  },
  {
    "type": "Feature",
    "geometry": {
       "type": "Point",
       "coordinates":  [ -5.978032,37.386997 ]
    },
    "properties": {
    "X":-5.978032195959441,
    "Y":37.38699674138646,
    "FID":152,
    "id_estacio":83,
    "Direccion":"Avenida La Buhaira",
    "Aproximaci":"Avenida Luis Montoto",
    "CreationDate":"2014-10-04T21:21:32.379Z",
    "Creator":"Ayto.Sevilla",
    "EditDate":"2014-10-04T21:21:32.379Z",
    "Editor":"Ayto.Sevilla"
    }
  },
  {
    "type": "Feature",
    "geometry": {
       "type": "Point",
       "coordinates":  [ -5.963193,37.418919 ]
    },
    "properties": {
    "X":-5.963192925781084,
    "Y":37.418919219316784,
    "FID":153,
    "id_estacio":200,
    "Direccion":"Calle Camino de Los Toros",
    "Aproximaci":"Calle Mediterráneo",
    "CreationDate":"2014-10-04T21:21:32.379Z",
    "Creator":"Ayto.Sevilla",
    "EditDate":"2014-10-04T21:21:32.379Z",
    "Editor":"Ayto.Sevilla"
    }
  },
  {
    "type": "Feature",
    "geometry": {
       "type": "Point",
       "coordinates":  [ -5.983063,37.387375 ]
    },
    "properties": {
    "X":-5.983062761550511,
    "Y":37.38737503249241,
    "FID":154,
    "id_estacio":84,
    "Direccion":"Calle José María Moreno Galván",
    "Aproximaci":"Calle Juan Antonio Cabestany",
    "CreationDate":"2014-10-04T21:21:32.379Z",
    "Creator":"Ayto.Sevilla",
    "EditDate":"2014-10-04T21:21:32.379Z",
    "Editor":"Ayto.Sevilla"
    }
  },
  {
    "type": "Feature",
    "geometry": {
       "type": "Point",
       "coordinates":  [ -5.967817,37.415722 ]
    },
    "properties": {
    "X":-5.967816554548441,
    "Y":37.41572216104592,
    "FID":155,
    "id_estacio":201,
    "Direccion":"Calle Pino Montano",
    "Aproximaci":"Calle Estafeta",
    "CreationDate":"2014-10-04T21:21:32.379Z",
    "Creator":"Ayto.Sevilla",
    "EditDate":"2014-10-04T21:21:32.379Z",
    "Editor":"Ayto.Sevilla"
    }
  },
  {
    "type": "Feature",
    "geometry": {
       "type": "Point",
       "coordinates":  [ -5.986732,37.385303 ]
    },
    "properties": {
    "X":-5.986732379486138,
    "Y":37.38530297308692,
    "FID":156,
    "id_estacio":85,
    "Direccion":"Paseo Catalina Ribera",
    "Aproximaci":"Frente a la Diputación Provincial",
    "CreationDate":"2014-10-04T21:21:32.379Z",
    "Creator":"Ayto.Sevilla",
    "EditDate":"2014-10-04T21:21:32.379Z",
    "Editor":"Ayto.Sevilla"
    }
  },
  {
    "type": "Feature",
    "geometry": {
       "type": "Point",
       "coordinates":  [ -6.006276,37.39706 ]
    },
    "properties": {
    "X":-6.006276126807457,
    "Y":37.39706006223419,
    "FID":157,
    "id_estacio":86,
    "Direccion":"Camino de los Descubrimientos",
    "Aproximaci":"Pasarela de la Cartuja",
    "CreationDate":"2014-10-04T21:21:32.379Z",
    "Creator":"Ayto.Sevilla",
    "EditDate":"2014-10-04T21:21:32.379Z",
    "Editor":"Ayto.Sevilla"
    }
  },
  {
    "type": "Feature",
    "geometry": {
       "type": "Point",
       "coordinates":  [ -5.995421,37.388927 ]
    },
    "properties": {
    "X":-5.995420884914136,
    "Y":37.38892671981143,
    "FID":158,
    "id_estacio":87,
    "Direccion":"Plaza Nueva",
    "Aproximaci":"Calle Tetuan",
    "CreationDate":"2014-10-04T21:21:32.379Z",
    "Creator":"Ayto.Sevilla",
    "EditDate":"2014-10-04T21:21:32.379Z",
    "Editor":"Ayto.Sevilla"
    }
  },
  {
    "type": "Feature",
    "geometry": {
       "type": "Point",
       "coordinates":  [ -5.966746,37.411491 ]
    },
    "properties": {
    "X":-5.966745762729777,
    "Y":37.41149107519644,
    "FID":159,
    "id_estacio":202,
    "Direccion":"Avenida Mujer Trabajadora",
    "Aproximaci":"Avenida Miraflores",
    "CreationDate":"2014-10-04T21:21:32.379Z",
    "Creator":"Ayto.Sevilla",
    "EditDate":"2014-10-04T21:21:32.379Z",
    "Editor":"Ayto.Sevilla"
    }
  },
  {
    "type": "Feature",
    "geometry": {
       "type": "Point",
       "coordinates":  [ -5.958765,37.396206 ]
    },
    "properties": {
    "X":-5.958765129745639,
    "Y":37.396205803005024,
    "FID":160,
    "id_estacio":203,
    "Direccion":"Calle Tesalónica",
    "Aproximaci":"Calle Mazzantini",
    "CreationDate":"2014-10-04T21:21:32.379Z",
    "Creator":"Ayto.Sevilla",
    "EditDate":"2014-10-04T21:21:32.379Z",
    "Editor":"Ayto.Sevilla"
    }
  },
  {
    "type": "Feature",
    "geometry": {
       "type": "Point",
       "coordinates":  [ -5.961647,37.397659 ]
    },
    "properties": {
    "X":-5.961646925177101,
    "Y":37.39765882292408,
    "FID":161,
    "id_estacio":204,
    "Direccion":"Calle Doctor Laffon",
    "Aproximaci":"Calle Tesalonica",
    "CreationDate":"2014-10-04T21:21:32.379Z",
    "Creator":"Ayto.Sevilla",
    "EditDate":"2014-10-04T21:21:32.379Z",
    "Editor":"Ayto.Sevilla"
    }
  },
  {
    "type": "Feature",
    "geometry": {
       "type": "Point",
       "coordinates":  [ -6.006432,37.409214 ]
    },
    "properties": {
    "X":-6.00643243366688,
    "Y":37.40921418118853,
    "FID":162,
    "id_estacio":88,
    "Direccion":"Calle Americo Vespucio",
    "Aproximaci":"Calle Hermanos d'Eluyar",
    "CreationDate":"2014-10-04T21:21:32.379Z",
    "Creator":"Ayto.Sevilla",
    "EditDate":"2014-10-04T21:21:32.379Z",
    "Editor":"Ayto.Sevilla"
    }
  },
  {
    "type": "Feature",
    "geometry": {
       "type": "Point",
       "coordinates":  [ -5.961821,37.400173 ]
    },
    "properties": {
    "X":-5.961821198342207,
    "Y":37.400172994677824,
    "FID":163,
    "id_estacio":205,
    "Direccion":"Avenida Kansas City",
    "Aproximaci":"Plaza el Tato",
    "CreationDate":"2014-10-04T21:21:32.379Z",
    "Creator":"Ayto.Sevilla",
    "EditDate":"2014-10-04T21:21:32.379Z",
    "Editor":"Ayto.Sevilla"
    }
  },
  {
    "type": "Feature",
    "geometry": {
       "type": "Point",
       "coordinates":  [ -5.997763,37.386475 ]
    },
    "properties": {
    "X":-5.997762792859829,
    "Y":37.38647498203128,
    "FID":164,
    "id_estacio":89,
    "Direccion":"Calle Adriano",
    "Aproximaci":"Calle Antonia Díaz",
    "CreationDate":"2014-10-04T21:21:32.379Z",
    "Creator":"Ayto.Sevilla",
    "EditDate":"2014-10-04T21:21:32.379Z",
    "Editor":"Ayto.Sevilla"
    }
  },
  {
    "type": "Feature",
    "geometry": {
       "type": "Point",
       "coordinates":  [ -5.9582,37.402988 ]
    },
    "properties": {
    "X":-5.958200089431942,
    "Y":37.40298822456527,
    "FID":165,
    "id_estacio":206,
    "Direccion":"Avenida Kansas City",
    "Aproximaci":"Calle Macedonia",
    "CreationDate":"2014-10-04T21:21:32.379Z",
    "Creator":"Ayto.Sevilla",
    "EditDate":"2014-10-04T21:21:32.379Z",
    "Editor":"Ayto.Sevilla"
    }
  },
  {
    "type": "Feature",
    "geometry": {
       "type": "Point",
       "coordinates":  [ -5.99354,37.38121 ]
    },
    "properties": {
    "X":-5.993539812709203,
    "Y":37.38121007709166,
    "FID":166,
    "id_estacio":90,
    "Direccion":"Calle Roma",
    "Aproximaci":"Calle Palos de la Frontera",
    "CreationDate":"2014-10-04T21:21:32.379Z",
    "Creator":"Ayto.Sevilla",
    "EditDate":"2014-10-04T21:21:32.379Z",
    "Editor":"Ayto.Sevilla"
    }
  },
  {
    "type": "Feature",
    "geometry": {
       "type": "Point",
       "coordinates":  [ -5.982391,37.355045 ]
    },
    "properties": {
    "X":-5.982390821717982,
    "Y":37.355044956503,
    "FID":167,
    "id_estacio":207,
    "Direccion":"Calle Ifni",
    "Aproximaci":"Avenida de Holanda",
    "CreationDate":"2014-10-04T21:21:32.379Z",
    "Creator":"Ayto.Sevilla",
    "EditDate":"2014-10-04T21:21:32.379Z",
    "Editor":"Ayto.Sevilla"
    }
  },
  {
    "type": "Feature",
    "geometry": {
       "type": "Point",
       "coordinates":  [ -6.007643,37.386932 ]
    },
    "properties": {
    "X":-6.00764336266988,
    "Y":37.38693178932538,
    "FID":168,
    "id_estacio":91,
    "Direccion":"Calle Procurador",
    "Aproximaci":"Clara de Jesús Monteto",
    "CreationDate":"2014-10-04T21:21:32.379Z",
    "Creator":"Ayto.Sevilla",
    "EditDate":"2014-10-04T21:21:32.379Z",
    "Editor":"Ayto.Sevilla"
    }
  },
  {
    "type": "Feature",
    "geometry": {
       "type": "Point",
       "coordinates":  [ -5.984197,37.350651 ]
    },
    "properties": {
    "X":-5.98419733375436,
    "Y":37.350651200292084,
    "FID":169,
    "id_estacio":208,
    "Direccion":"Avenida de Grecia",
    "Aproximaci":"Avenida de Italia",
    "CreationDate":"2014-10-04T21:21:32.379Z",
    "Creator":"Ayto.Sevilla",
    "EditDate":"2014-10-04T21:21:32.379Z",
    "Editor":"Ayto.Sevilla"
    }
  },
  {
    "type": "Feature",
    "geometry": {
       "type": "Point",
       "coordinates":  [ -6.011166,37.385529 ]
    },
    "properties": {
    "X":-6.011165656898892,
    "Y":37.38552923933451,
    "FID":170,
    "id_estacio":92,
    "Direccion":"Ronda de Triana",
    "Aproximaci":"Calle de Manuel Arellano",
    "CreationDate":"2014-10-04T21:21:32.379Z",
    "Creator":"Ayto.Sevilla",
    "EditDate":"2014-10-04T21:21:32.379Z",
    "Editor":"Ayto.Sevilla"
    }
  },
  {
    "type": "Feature",
    "geometry": {
       "type": "Point",
       "coordinates":  [ -6.010889,37.383072 ]
    },
    "properties": {
    "X":-6.010888975791411,
    "Y":37.383071680086374,
    "FID":171,
    "id_estacio":93,
    "Direccion":"Ronda de Triana",
    "Aproximaci":"Calle San Vicente de Paul",
    "CreationDate":"2014-10-04T21:21:32.379Z",
    "Creator":"Ayto.Sevilla",
    "EditDate":"2014-10-04T21:21:32.379Z",
    "Editor":"Ayto.Sevilla"
    }
  },
  {
    "type": "Feature",
    "geometry": {
       "type": "Point",
       "coordinates":  [ -5.982614,37.345284 ]
    },
    "properties": {
    "X":-5.98261360390845,
    "Y":37.345283799252606,
    "FID":172,
    "id_estacio":209,
    "Direccion":"Avenida Alemania",
    "Aproximaci":"Glorieta Chequia",
    "CreationDate":"2014-10-04T21:21:32.379Z",
    "Creator":"Ayto.Sevilla",
    "EditDate":"2014-10-04T21:21:32.379Z",
    "Editor":"Ayto.Sevilla"
    }
  },
  {
    "type": "Feature",
    "geometry": {
       "type": "Point",
       "coordinates":  [ -6.00821,37.383343 ]
    },
    "properties": {
    "X":-6.008210199614139,
    "Y":37.38334292206403,
    "FID":173,
    "id_estacio":94,
    "Direccion":"Plaza del Zurraque",
    "Aproximaci":"Calle Doc. Jeronimo Pou",
    "CreationDate":"2014-10-04T21:21:32.379Z",
    "Creator":"Ayto.Sevilla",
    "EditDate":"2014-10-04T21:21:32.379Z",
    "Editor":"Ayto.Sevilla"
    }
  },
  {
    "type": "Feature",
    "geometry": {
       "type": "Point",
       "coordinates":  [ -6.006387,37.412148 ]
    },
    "properties": {
    "X":-6.006386619587376,
    "Y":37.41214822916515,
    "FID":174,
    "id_estacio":95,
    "Direccion":"Calle Américo Vespucio",
    "Aproximaci":"Calle Juan Bautista Muñoz",
    "CreationDate":"2014-10-04T21:21:32.379Z",
    "Creator":"Ayto.Sevilla",
    "EditDate":"2014-10-04T21:21:32.379Z",
    "Editor":"Ayto.Sevilla"
    }
  },
  {
    "type": "Feature",
    "geometry": {
       "type": "Point",
       "coordinates":  [ -6.000161,37.383766 ]
    },
    "properties": {
    "X":-6.000161294668429,
    "Y":37.383766200347914,
    "FID":175,
    "id_estacio":96,
    "Direccion":"Calle Betis",
    "Aproximaci":"Calle Juan de Lugo",
    "CreationDate":"2014-10-04T21:21:32.379Z",
    "Creator":"Ayto.Sevilla",
    "EditDate":"2014-10-04T21:21:32.379Z",
    "Editor":"Ayto.Sevilla"
    }
  },
  {
    "type": "Feature",
    "geometry": {
       "type": "Point",
       "coordinates":  [ -5.980027,37.348045 ]
    },
    "properties": {
    "X":-5.980027354205484,
    "Y":37.34804467373537,
    "FID":176,
    "id_estacio":210,
    "Direccion":"Paseo de Europa",
    "Aproximaci":"Avenida de Francia",
    "CreationDate":"2014-10-04T21:21:32.379Z",
    "Creator":"Ayto.Sevilla",
    "EditDate":"2014-10-04T21:21:32.379Z",
    "Editor":"Ayto.Sevilla"
    }
  },
  {
    "type": "Feature",
    "geometry": {
       "type": "Point",
       "coordinates":  [ -5.995531,37.381561 ]
    },
    "properties": {
    "X":-5.99553137769409,
    "Y":37.38156127260447,
    "FID":177,
    "id_estacio":97,
    "Direccion":"Paseo de Cristóbal Colón",
    "Aproximaci":"Torre del Oro",
    "CreationDate":"2014-10-04T21:21:32.379Z",
    "Creator":"Ayto.Sevilla",
    "EditDate":"2014-10-04T21:21:32.379Z",
    "Editor":"Ayto.Sevilla"
    }
  },
  {
    "type": "Feature",
    "geometry": {
       "type": "Point",
       "coordinates":  [ -5.97609,37.346104 ]
    },
    "properties": {
    "X":-5.976090038315181,
    "Y":37.34610364531417,
    "FID":178,
    "id_estacio":211,
    "Direccion":"Avenida de Alemania",
    "Aproximaci":"Glorieta de Letonia",
    "CreationDate":"2014-10-04T21:21:32.379Z",
    "Creator":"Ayto.Sevilla",
    "EditDate":"2014-10-04T21:21:32.379Z",
    "Editor":"Ayto.Sevilla"
    }
  },
  {
    "type": "Feature",
    "geometry": {
       "type": "Point",
       "coordinates":  [ -5.993251,37.381989 ]
    },
    "properties": {
    "X":-5.993250555187723,
    "Y":37.38198884378313,
    "FID":179,
    "id_estacio":98,
    "Direccion":"Avenida de Roma",
    "Aproximaci":"Puerta de Jerez",
    "CreationDate":"2014-10-04T21:21:32.379Z",
    "Creator":"Ayto.Sevilla",
    "EditDate":"2014-10-04T21:21:32.379Z",
    "Editor":"Ayto.Sevilla"
    }
  },
  {
    "type": "Feature",
    "geometry": {
       "type": "Point",
       "coordinates":  [ -6.010554,37.397377 ]
    },
    "properties": {
    "X":-6.010553904190427,
    "Y":37.3973769278436,
    "FID":180,
    "id_estacio":99,
    "Direccion":"Calle Américo Vespucio",
    "Aproximaci":"Gerencia de Urbanismo de Sevilla",
    "CreationDate":"2014-10-04T21:21:32.379Z",
    "Creator":"Ayto.Sevilla",
    "EditDate":"2014-10-04T21:21:32.379Z",
    "Editor":"Ayto.Sevilla"
    }
  },
  {
    "type": "Feature",
    "geometry": {
       "type": "Point",
       "coordinates":  [ -5.977771,37.351608 ]
    },
    "properties": {
    "X":-5.97777078621175,
    "Y":37.35160809418142,
    "FID":181,
    "id_estacio":212,
    "Direccion":"Avenida Reino Unido",
    "Aproximaci":"Avenida de Italia",
    "CreationDate":"2014-10-04T21:21:32.379Z",
    "Creator":"Ayto.Sevilla",
    "EditDate":"2014-10-04T21:21:32.379Z",
    "Editor":"Ayto.Sevilla"
    }
  },
  {
    "type": "Feature",
    "geometry": {
       "type": "Point",
       "coordinates":  [ -5.989214,37.381561 ]
    },
    "properties": {
    "X":-5.989214424616168,
    "Y":37.38156127260447,
    "FID":182,
    "id_estacio":100,
    "Direccion":"Paseo Catalina Ribera",
    "Aproximaci":"Calle San Fernando",
    "CreationDate":"2014-10-04T21:21:32.379Z",
    "Creator":"Ayto.Sevilla",
    "EditDate":"2014-10-04T21:21:32.379Z",
    "Editor":"Ayto.Sevilla"
    }
  },
  {
    "type": "Feature",
    "geometry": {
       "type": "Point",
       "coordinates":  [ -5.986873,37.381298 ]
    },
    "properties": {
    "X":-5.986873414985739,
    "Y":37.381297876124044,
    "FID":183,
    "id_estacio":101,
    "Direccion":"Prado de San Sebastian",
    "Aproximaci":"Estación de autobuses",
    "CreationDate":"2014-10-04T21:21:32.379Z",
    "Creator":"Ayto.Sevilla",
    "EditDate":"2014-10-04T21:21:32.379Z",
    "Editor":"Ayto.Sevilla"
    }
  },
  {
    "type": "Feature",
    "geometry": {
       "type": "Point",
       "coordinates":  [ -5.948397,37.387173 ]
    },
    "properties": {
    "X":-5.948396774736339,
    "Y":37.387173039554476,
    "FID":184,
    "id_estacio":213,
    "Direccion":"Avenida de Andalucia",
    "Aproximaci":"Cochera de TUSSAM",
    "CreationDate":"2014-10-04T21:21:32.379Z",
    "Creator":"Ayto.Sevilla",
    "EditDate":"2014-10-04T21:21:32.379Z",
    "Editor":"Ayto.Sevilla"
    }
  },
  {
    "type": "Feature",
    "geometry": {
       "type": "Point",
       "coordinates":  [ -5.983716,37.38274 ]
    },
    "properties": {
    "X":-5.983715836762059,
    "Y":37.38273976422618,
    "FID":185,
    "id_estacio":102,
    "Direccion":"Calle Juan de Mata Carriazo",
    "Aproximaci":"Antigua estación San Bernardo",
    "CreationDate":"2014-10-04T21:21:32.379Z",
    "Creator":"Ayto.Sevilla",
    "EditDate":"2014-10-04T21:21:32.379Z",
    "Editor":"Ayto.Sevilla"
    }
  },
  {
    "type": "Feature",
    "geometry": {
       "type": "Point",
       "coordinates":  [ -5.98252,37.384309 ]
    },
    "properties": {
    "X":-5.982520179118916,
    "Y":37.3843086782975,
    "FID":186,
    "id_estacio":103,
    "Direccion":"Avenida Eduardo Dato",
    "Aproximaci":"Calle San Bernardo",
    "CreationDate":"2014-10-04T21:21:32.379Z",
    "Creator":"Ayto.Sevilla",
    "EditDate":"2014-10-04T21:21:32.379Z",
    "Editor":"Ayto.Sevilla"
    }
  },
  {
    "type": "Feature",
    "geometry": {
       "type": "Point",
       "coordinates":  [ -5.979757,37.384171 ]
    },
    "properties": {
    "X":-5.979756961304951,
    "Y":37.38417091782152,
    "FID":187,
    "id_estacio":104,
    "Direccion":"Avenida Eduardo Dato",
    "Aproximaci":"Calle Fuenteovejuna",
    "CreationDate":"2014-10-04T21:21:32.379Z",
    "Creator":"Ayto.Sevilla",
    "EditDate":"2014-10-04T21:21:32.379Z",
    "Editor":"Ayto.Sevilla"
    }
  },
  {
    "type": "Feature",
    "geometry": {
       "type": "Point",
       "coordinates":  [ -5.948491,37.38718 ]
    },
    "properties": {
    "X":-5.94849109784117,
    "Y":37.3871801771234,
    "FID":188,
    "id_estacio":214,
    "Direccion":"Avenida de Andalucia",
    "Aproximaci":"Entrada TUSSAM",
    "CreationDate":"2014-10-04T21:21:32.379Z",
    "Creator":"Ayto.Sevilla",
    "EditDate":"2014-10-04T21:21:32.379Z",
    "Editor":"Ayto.Sevilla"
    }
  },
  {
    "type": "Feature",
    "geometry": {
       "type": "Point",
       "coordinates":  [ -5.980601,37.358913 ]
    },
    "properties": {
    "X":-5.980601377672023,
    "Y":37.3589129343353,
    "FID":189,
    "id_estacio":105,
    "Direccion":"Calle Francisco Murillo",
    "Aproximaci":"Calle Manuel Siurot",
    "CreationDate":"2014-10-04T21:21:32.379Z",
    "Creator":"Ayto.Sevilla",
    "EditDate":"2014-10-04T21:21:32.379Z",
    "Editor":"Ayto.Sevilla"
    }
  },
  {
    "type": "Feature",
    "geometry": {
       "type": "Point",
       "coordinates":  [ -5.977473,37.383743 ]
    },
    "properties": {
    "X":-5.977473443852726,
    "Y":37.38374264529538,
    "FID":190,
    "id_estacio":106,
    "Direccion":"Avenida Eduardo Dato",
    "Aproximaci":"Calle Oscar Carvallo",
    "CreationDate":"2014-10-04T21:21:32.379Z",
    "Creator":"Ayto.Sevilla",
    "EditDate":"2014-10-04T21:21:32.379Z",
    "Editor":"Ayto.Sevilla"
    }
  },
  {
    "type": "Feature",
    "geometry": {
       "type": "Point",
       "coordinates":  [ -5.972663,37.384254 ]
    },
    "properties": {
    "X":-5.972662965506265,
    "Y":37.38425371689442,
    "FID":191,
    "id_estacio":107,
    "Direccion":"Calle Luis Morales",
    "Aproximaci":"Nervión Plaza",
    "CreationDate":"2014-10-04T21:21:32.379Z",
    "Creator":"Ayto.Sevilla",
    "EditDate":"2014-10-04T21:21:32.379Z",
    "Editor":"Ayto.Sevilla"
    }
  },
  {
    "type": "Feature",
    "geometry": {
       "type": "Point",
       "coordinates":  [ -5.973557,37.382832 ]
    },
    "properties": {
    "X":-5.973556789213965,
    "Y":37.382831844257225,
    "FID":192,
    "id_estacio":108,
    "Direccion":"Avenida Eduardo Dato",
    "Aproximaci":"Avenida de San Francisco Javier",
    "CreationDate":"2014-10-04T21:21:32.379Z",
    "Creator":"Ayto.Sevilla",
    "EditDate":"2014-10-04T21:21:32.379Z",
    "Editor":"Ayto.Sevilla"
    }
  },
  {
    "type": "Feature",
    "geometry": {
       "type": "Point",
       "coordinates":  [ -5.954,37.386658 ]
    },
    "properties": {
    "X":-5.953999567163385,
    "Y":37.38665770528286,
    "FID":193,
    "id_estacio":215,
    "Direccion":"Calle Zorzal",
    "Aproximaci":"Avenida de Andalucia",
    "CreationDate":"2014-10-04T21:21:32.379Z",
    "Creator":"Ayto.Sevilla",
    "EditDate":"2014-10-04T21:21:32.379Z",
    "Editor":"Ayto.Sevilla"
    }
  },
  {
    "type": "Feature",
    "geometry": {
       "type": "Point",
       "coordinates":  [ -5.974588,37.379898 ]
    },
    "properties": {
    "X":-5.97458805516014,
    "Y":37.379898076053614,
    "FID":194,
    "id_estacio":109,
    "Direccion":"Avenida San Francisco Javier",
    "Aproximaci":"Calle Camilo José Cela",
    "CreationDate":"2014-10-04T21:21:32.379Z",
    "Creator":"Ayto.Sevilla",
    "EditDate":"2014-10-04T21:21:32.379Z",
    "Editor":"Ayto.Sevilla"
    }
  },
  {
    "type": "Feature",
    "geometry": {
       "type": "Point",
       "coordinates":  [ -5.956273,37.399948 ]
    },
    "properties": {
    "X":-5.956273203147505,
    "Y":37.39994819989899,
    "FID":195,
    "id_estacio":216,
    "Direccion":"Calle Antioquia",
    "Aproximaci":"Avenida de Pedro Romero",
    "CreationDate":"2014-10-04T21:21:32.379Z",
    "Creator":"Ayto.Sevilla",
    "EditDate":"2014-10-04T21:21:32.379Z",
    "Editor":"Ayto.Sevilla"
    }
  },
  {
    "type": "Feature",
    "geometry": {
       "type": "Point",
       "coordinates":  [ -5.982969,37.380184 ]
    },
    "properties": {
    "X":-5.982969336760976,
    "Y":37.38018431980464,
    "FID":196,
    "id_estacio":110,
    "Direccion":"Plaza Maria Mercedes Borbón",
    "Aproximaci":"Calle Virgen de la Sierra",
    "CreationDate":"2014-10-04T21:21:32.379Z",
    "Creator":"Ayto.Sevilla",
    "EditDate":"2014-10-04T21:21:32.379Z",
    "Editor":"Ayto.Sevilla"
    }
  },
  {
    "type": "Feature",
    "geometry": {
       "type": "Point",
       "coordinates":  [ -6.001008,37.381264 ]
    },
    "properties": {
    "X":-6.001008405981359,
    "Y":37.38126432691246,
    "FID":197,
    "id_estacio":111,
    "Direccion":"Plaza Farmacéutico Murillo Herrera",
    "Aproximaci":"Calle Pages de Corro",
    "CreationDate":"2014-10-04T21:21:32.379Z",
    "Creator":"Ayto.Sevilla",
    "EditDate":"2014-10-04T21:21:32.379Z",
    "Editor":"Ayto.Sevilla"
    }
  },
  {
    "type": "Feature",
    "geometry": {
       "type": "Point",
       "coordinates":  [ -6.004353,37.380127 ]
    },
    "properties": {
    "X":-6.004352833784143,
    "Y":37.38012721390664,
    "FID":198,
    "id_estacio":112,
    "Direccion":"Avenida J.Mª Martínez Sánchez Arjona",
    "Aproximaci":"Plaza Amadeo Janone",
    "CreationDate":"2014-10-04T21:21:32.379Z",
    "Creator":"Ayto.Sevilla",
    "EditDate":"2014-10-04T21:21:32.379Z",
    "Editor":"Ayto.Sevilla"
    }
  },
  {
    "type": "Feature",
    "geometry": {
       "type": "Point",
       "coordinates":  [ -5.962387,37.393906 ]
    },
    "properties": {
    "X":-5.962387136971202,
    "Y":37.39390632001076,
    "FID":199,
    "id_estacio":217,
    "Direccion":"Calle de la A.D.A.",
    "Aproximaci":"Calle Jerusalén",
    "CreationDate":"2014-10-04T21:21:32.379Z",
    "Creator":"Ayto.Sevilla",
    "EditDate":"2014-10-04T21:21:32.379Z",
    "Editor":"Ayto.Sevilla"
    }
  },
  {
    "type": "Feature",
    "geometry": {
       "type": "Point",
       "coordinates":  [ -6.009214,37.380783 ]
    },
    "properties": {
    "X":-6.009213617786528,
    "Y":37.380783215290464,
    "FID":200,
    "id_estacio":113,
    "Direccion":"Plaza San Martín de Porres",
    "Aproximaci":"Avenida Alvar Núñez",
    "CreationDate":"2014-10-04T21:21:32.379Z",
    "Creator":"Ayto.Sevilla",
    "EditDate":"2014-10-04T21:21:32.379Z",
    "Editor":"Ayto.Sevilla"
    }
  },
  {
    "type": "Feature",
    "geometry": {
       "type": "Point",
       "coordinates":  [ -5.979288,37.356327 ]
    },
    "properties": {
    "X":-5.979288040726646,
    "Y":37.35632668805714,
    "FID":201,
    "id_estacio":114,
    "Direccion":"Glorieta Plus Ultra",
    "Aproximaci":"Estadio Benito Villamarín",
    "CreationDate":"2014-10-04T21:21:32.379Z",
    "Creator":"Ayto.Sevilla",
    "EditDate":"2014-10-04T21:21:32.379Z",
    "Editor":"Ayto.Sevilla"
    }
  },
  {
    "type": "Feature",
    "geometry": {
       "type": "Point",
       "coordinates":  [ -6.003605,37.385116 ]
    },
    "properties": {
    "X":-6.003605435467763,
    "Y":37.38511596387479,
    "FID":202,
    "id_estacio":218,
    "Direccion":"Plaza del Altozano",
    "Aproximaci":"Calle San Jorge",
    "CreationDate":"2014-10-04T21:21:32.379Z",
    "Creator":"Ayto.Sevilla",
    "EditDate":"2014-10-04T21:21:32.379Z",
    "Editor":"Ayto.Sevilla"
    }
  },
  {
    "type": "Feature",
    "geometry": {
       "type": "Point",
       "coordinates":  [ -6.007161,37.377857 ]
    },
    "properties": {
    "X":-6.007160967362315,
    "Y":37.37785721924283,
    "FID":203,
    "id_estacio":115,
    "Direccion":"Calle López de Gomara",
    "Aproximaci":"Frente Instituto Adolfo Becquer",
    "CreationDate":"2014-10-04T21:21:32.379Z",
    "Creator":"Ayto.Sevilla",
    "EditDate":"2014-10-04T21:21:32.379Z",
    "Editor":"Ayto.Sevilla"
    }
  },
  {
    "type": "Feature",
    "geometry": {
       "type": "Point",
       "coordinates":  [ -5.959053,37.390614 ]
    },
    "properties": {
    "X":-5.959052590636557,
    "Y":37.39061398272938,
    "FID":204,
    "id_estacio":219,
    "Direccion":"Calle de la A.D.A.",
    "Aproximaci":"Calle de Tesalónica",
    "CreationDate":"2014-10-04T21:21:32.379Z",
    "Creator":"Ayto.Sevilla",
    "EditDate":"2014-10-04T21:21:32.379Z",
    "Editor":"Ayto.Sevilla"
    }
  },
  {
    "type": "Feature",
    "geometry": {
       "type": "Point",
       "coordinates":  [ -5.981547,37.361404 ]
    },
    "properties": {
    "X":-5.981547303666208,
    "Y":37.3614041292662,
    "FID":205,
    "id_estacio":116,
    "Direccion":"Calle Manuel Siurot",
    "Aproximaci":"Hospital Universitario Virgen del Rocio",
    "CreationDate":"2014-10-04T21:21:32.379Z",
    "Creator":"Ayto.Sevilla",
    "EditDate":"2014-10-04T21:21:32.379Z",
    "Editor":"Ayto.Sevilla"
    }
  },
  {
    "type": "Feature",
    "geometry": {
       "type": "Point",
       "coordinates":  [ -5.935817,37.405083 ]
    },
    "properties": {
    "X":-5.935816767497542,
    "Y":37.40508334348359,
    "FID":206,
    "id_estacio":220,
    "Direccion":"Avenida Alcalde Luis Uruñuela",
    "Aproximaci":"Centro Comercial Zona Este",
    "CreationDate":"2014-10-04T21:21:32.379Z",
    "Creator":"Ayto.Sevilla",
    "EditDate":"2014-10-04T21:21:32.379Z",
    "Editor":"Ayto.Sevilla"
    }
  },
  {
    "type": "Feature",
    "geometry": {
       "type": "Point",
       "coordinates":  [ -6.002577,37.377785 ]
    },
    "properties": {
    "X":-6.002576864467446,
    "Y":37.37778512080225,
    "FID":207,
    "id_estacio":117,
    "Direccion":"Avenida J.Mª Martínez Sánchez Arjona",
    "Aproximaci":"Avenida Republica Argentina",
    "CreationDate":"2014-10-04T21:21:32.379Z",
    "Creator":"Ayto.Sevilla",
    "EditDate":"2014-10-04T21:21:32.379Z",
    "Editor":"Ayto.Sevilla"
    }
  },
  {
    "type": "Feature",
    "geometry": {
       "type": "Point",
       "coordinates":  [ -5.997122,37.380146 ]
    },
    "properties": {
    "X":-5.997122294062279,
    "Y":37.38014577332827,
    "FID":208,
    "id_estacio":118,
    "Direccion":"Plaza de Cuba",
    "Aproximaci":"Puente de San Telmo",
    "CreationDate":"2014-10-04T21:21:32.379Z",
    "Creator":"Ayto.Sevilla",
    "EditDate":"2014-10-04T21:21:32.379Z",
    "Editor":"Ayto.Sevilla"
    }
  },
  {
    "type": "Feature",
    "geometry": {
       "type": "Point",
       "coordinates":  [ -5.930538,37.405602 ]
    },
    "properties": {
    "X":-5.930538266888042,
    "Y":37.40560211898961,
    "FID":209,
    "id_estacio":221,
    "Direccion":"Avenida Alcalde Luis Uruñuela",
    "Aproximaci":"Hotel Sevilla Congresos",
    "CreationDate":"2014-10-04T21:21:32.379Z",
    "Creator":"Ayto.Sevilla",
    "EditDate":"2014-10-04T21:21:32.379Z",
    "Editor":"Ayto.Sevilla"
    }
  },
  {
    "type": "Feature",
    "geometry": {
       "type": "Point",
       "coordinates":  [ -5.991934,37.377426 ]
    },
    "properties": {
    "X":-5.991933624981191,
    "Y":37.37742605525925,
    "FID":210,
    "id_estacio":119,
    "Direccion":"Avenida de Chile",
    "Aproximaci":"Costurero de la Reina",
    "CreationDate":"2014-10-04T21:21:32.379Z",
    "Creator":"Ayto.Sevilla",
    "EditDate":"2014-10-04T21:21:32.379Z",
    "Editor":"Ayto.Sevilla"
    }
  },
  {
    "type": "Feature",
    "geometry": {
       "type": "Point",
       "coordinates":  [ -5.934514,37.404102 ]
    },